,number,contract_name,name,address,banking,bonus,bike_stands,available_bike_stands,available_bikes,status,last_update,position.lat,position.lng
0,42,dublin,SMITHFIELD NORTH,Smithfield North,0,0,30,10,20,OPEN,1709177802000,53.349562,-6.278198
1,30,dublin,PARNELL SQUARE NORTH,Parnell Square North,0,0,20,17,3,OPEN,1709177972000,53.3537415547453,-6.26530144781526
2,54,dublin,CLONMEL STREET,Clonmel Street,0,0,33,31,2,OPEN,1709177991000,53.336021,-6.26298
3,108,dublin,AVONDALE ROAD,Avondale Road,0,0,35,16,19,OPEN,1709177856000,53.359405,-6.276142
4,20,dublin,JAMES STREET EAST,James Street East,0,0,30,30,0,OPEN,1709177976000,53.336597,-6.248109
5,56,dublin,MOUNT STREET LOWER,Mount Street Lower,0,0,40,33,7,OPEN,1709177814000,53.33796,-6.24153
6,6,dublin,CHRISTCHURCH PLACE,Christchurch Place,0,0,20,19,1,OPEN,1709177766000,53.343368,-6.27012
7,18,dublin,GRANTHAM STREET,Grantham Street,0,0,30,16,14,OPEN,1709177853000,53.334123,-6.265436
8,32,dublin,PEARSE STREET,Pearse Street,0,0,30,23,7,OPEN,1709177796000,53.344304,-6.250427
9,52,dublin,YORK STREET EAST,York Street East,0,0,32,32,0,OPEN,1709177932000,53.338755,-6.262003
10,48,dublin,EXCISE WALK,Excise Walk,0,0,40,23,17,OPEN,1709177853000,53.347777,-6.244239
11,13,dublin,FITZWILLIAM SQUARE WEST,Fitzwilliam Square West,0,0,30,26,4,OPEN,1709177859000,53.336074,-6.252825
12,43,dublin,PORTOBELLO ROAD,Portobello Road,0,0,30,0,30,OPEN,1709177855000,53.330091,-6.268044
13,31,dublin,PARNELL STREET,Parnell Street,0,0,20,10,10,OPEN,1709177737000,53.350929,-6.265125
14,98,dublin,FREDERICK STREET SOUTH,Frederick Street South,0,0,40,38,2,OPEN,1709177912000,53.341515,-6.256853
15,14,dublin,FOWNES STREET UPPER,Fownes Street Upper,0,0,30,12,18,OPEN,1709177974000,53.344603,-6.263371
16,1,dublin,CLARENDON ROW,Clarendon Row,0,0,31,24,7,OPEN,1709177734000,53.340927,-6.262501
17,23,dublin,CUSTOM HOUSE,Custom House,0,0,30,11,19,OPEN,1709177859000,53.348279,-6.254662
18,106,dublin,RATHDOWN ROAD,Rathdown Road,0,0,40,25,15,OPEN,1709177731000,53.35893,-6.280337
19,112,dublin,NORTH CIRCULAR ROAD (O'CONNELL'S),North Circular Road (O'Connell's),0,0,30,0,30,OPEN,1709177795000,53.357841,-6.251557
20,68,dublin,HANOVER QUAY,Hanover Quay,0,0,40,38,2,OPEN,1709177881000,53.344115,-6.237153
21,74,dublin,OLIVER BOND STREET,Oliver Bond Street,0,0,30,21,9,OPEN,1709177915000,53.343893,-6.280531
22,87,dublin,COLLINS BARRACKS MUSEUM,Collins Barracks Museum,0,0,38,28,10,OPEN,1709177841000,53.347477,-6.28525
23,84,dublin,BROOKFIELD ROAD,Brookfield Road,0,0,30,16,14,OPEN,1709177910000,53.339005,-6.300217
24,90,dublin,BENSON STREET,Benson Street,0,0,40,40,0,OPEN,1709177978000,53.344153,-6.233451
25,11,dublin,EARLSFORT TERRACE,Earlsfort Terrace,0,0,30,29,1,OPEN,1709177736000,53.334295,-6.258503
26,17,dublin,GOLDEN LANE,Golden Lane,0,0,20,15,5,OPEN,1709177795000,53.340803,-6.267732
27,45,dublin,DEVERELL PLACE,Deverell Place,0,0,30,1,29,OPEN,1709177978000,53.351464,-6.255265
28,114,dublin,WILTON TERRACE (PARK),Wilton Terrace (Park),0,0,40,40,0,OPEN,1709177920000,53.333653,-6.248345
29,72,dublin,JOHN STREET WEST,John Street West,0,0,31,19,12,OPEN,1709177827000,53.343105,-6.277167
30,63,dublin,FENIAN STREET,Fenian Street,0,0,35,31,4,OPEN,1709177854000,53.341428,-6.24672
31,113,dublin,MERRION SQUARE SOUTH,Merrion Square South,0,0,40,40,0,OPEN,1709177887000,53.338614,-6.248606
32,91,dublin,SOUTH DOCK ROAD,South Dock Road,0,0,30,11,19,OPEN,1709177734000,53.341833,-6.231291
33,99,dublin,CITY QUAY,City Quay,0,0,30,30,0,OPEN,1709177913000,53.346637,-6.246154
34,9,dublin,EXCHEQUER STREET,Exchequer Street,0,0,24,24,0,OPEN,1709177920000,53.343034,-6.263578
35,67,dublin,THE POINT,The Point,0,0,40,26,14,OPEN,1709177790000,53.346867,-6.230852
36,116,dublin,BROADSTONE,Broadstone,0,0,30,27,3,OPEN,1709177732000,53.3547,-6.272314
37,55,dublin,HATCH STREET,Hatch Street,0,0,36,36,0,OPEN,1709178008000,53.33403,-6.260714
38,62,dublin,LIME STREET,Lime Street,0,0,40,40,0,OPEN,1709177826000,53.346026,-6.243576
39,5,dublin,CHARLEMONT PLACE,Charlemont Street,0,0,40,0,40,OPEN,1709177996000,53.330662,-6.260177
40,97,dublin,KILMAINHAM GAOL,Kilmainham Gaol,0,0,40,14,26,OPEN,1709177790000,53.342113,-6.310015
41,61,dublin,HARDWICKE PLACE,Hardwicke Place,0,0,25,10,15,OPEN,1709177731000,53.357043,-6.263232
42,77,dublin,WOLFE TONE STREET,Wolfe Tone Street,0,0,29,23,6,OPEN,1709177792000,53.348875,-6.267459
43,73,dublin,FRANCIS STREET,Francis Street,0,0,30,10,20,OPEN,1709177849000,53.342081,-6.275233
44,4,dublin,GREEK STREET,Greek Street,0,0,20,19,1,OPEN,1709177911000,53.346874,-6.272976
45,49,dublin,GUILD STREET,Guild Street,0,0,40,0,40,OPEN,1709177914000,53.347932,-6.240928
46,19,dublin,HERBERT PLACE,Herbert Place,0,0,30,29,1,OPEN,1709177910000,53.334432,-6.245575
47,7,dublin,HIGH STREET,High Street,0,0,29,15,14,OPEN,1709177828000,53.343565,-6.275071
48,60,dublin,NORTH CIRCULAR ROAD,North Circular Road,0,0,30,6,24,OPEN,1709177964000,53.359624,-6.260348
49,102,dublin,WESTERN WAY,Western Way,0,0,40,34,6,OPEN,1709177801000,53.354929,-6.269425
50,38,dublin,TALBOT STREET,Talbot Street,0,0,40,3,37,OPEN,1709177853000,53.350974,-6.25294
51,53,dublin,NEWMAN HOUSE,Newman House,0,0,40,40,0,OPEN,1709177856000,53.337132,-6.26059
52,58,dublin,SIR PATRICK DUN'S,Sir Patrick's Dun,0,0,40,31,9,OPEN,1709177856000,53.339218,-6.240642
53,66,dublin,NEW CENTRAL BANK,New Central Bank,0,0,40,31,9,OPEN,1709177732000,53.347122,-6.234749
54,104,dublin,GRANGEGORMAN LOWER (CENTRAL),Grangegorman Lower (Central),0,0,40,29,11,OPEN,1709177912000,53.355173,-6.278424
55,101,dublin,KING STREET NORTH,King Street North,0,0,30,15,15,OPEN,1709177740000,53.350291,-6.273507
56,115,dublin,KILLARNEY STREET,Killarney Street,0,0,30,9,21,OPEN,1709177967000,53.354845,-6.247579
57,47,dublin,HERBERT STREET,Herbert Street,0,0,40,40,0,OPEN,1709177792000,53.335742,-6.24551
58,117,dublin,HANOVER QUAY EAST,Hanover Quay East,0,0,40,40,0,OPEN,1709177792000,53.343653,-6.231755
59,8,dublin,CUSTOM HOUSE QUAY,Custom House Quay,0,0,30,30,0,OPEN,1709177852000,53.347884,-6.248048
60,27,dublin,MOLESWORTH STREET,Molesworth Street,0,0,20,20,0,OPEN,1709177828000,53.341288,-6.258117
61,16,dublin,GEORGES QUAY,Georges Quay,0,0,20,10,10,OPEN,1709177733000,53.347508,-6.252192
62,96,dublin,KILMAINHAM LANE,Kilmainham Lane,0,0,30,8,22,OPEN,1709177731000,53.341805,-6.305085
63,82,dublin,MOUNT BROWN,Mount Brown,0,0,22,8,14,OPEN,1709177798000,53.341645,-6.29719
64,76,dublin,MARKET STREET SOUTH,Market Street South,0,0,38,24,14,OPEN,1709177729000,53.342296,-6.287661
65,71,dublin,KEVIN STREET,Kevin Street,0,0,40,32,8,OPEN,1709177732000,53.337757,-6.267699
66,79,dublin,ECCLES STREET EAST,Eccles Street East,0,0,27,26,1,OPEN,1709177907000,53.358115,-6.265601
67,69,dublin,GRAND CANAL DOCK,Grand Canal Dock,0,0,40,36,4,OPEN,1709177916000,53.342638,-6.238695
68,25,dublin,MERRION SQUARE EAST,Merrion Square East,0,0,30,30,0,OPEN,1709178036000,53.339434,-6.246548
69,51,dublin,YORK STREET WEST,York Street West,0,0,40,34,6,OPEN,1709177738000,53.339334,-6.264699
70,37,dublin,ST. STEPHEN'S GREEN SOUTH,St. Stephen's Green South,1,0,30,30,0,OPEN,1709177855000,53.337494,-6.26199
71,59,dublin,DENMARK STREET GREAT,Denmark Street Great,0,0,20,15,5,OPEN,1709177910000,53.35561,-6.261397
72,95,dublin,ROYAL HOSPITAL,Royal Hospital,0,0,40,24,16,OPEN,1709177974000,53.343897,-6.29706
73,94,dublin,HEUSTON STATION (CAR PARK),Heuston Station (Car Park),0,0,40,20,20,OPEN,1709177910000,53.346985,-6.297804
74,105,dublin,GRANGEGORMAN LOWER (NORTH),Grangegorman Lower (North),0,0,36,18,18,OPEN,1709177970000,53.355954,-6.278378
75,36,dublin,ST. STEPHEN'S GREEN EAST,St. Stephen's Green East,0,0,40,39,1,OPEN,1709177763000,53.337824,-6.256035
76,93,dublin,HEUSTON STATION (CENTRAL),Heuston Station (Central),0,0,40,0,40,OPEN,1709177845000,53.346603,-6.296924
77,22,dublin,TOWNSEND STREET,Townsend Street,0,0,20,9,11,OPEN,1709177794000,53.345922,-6.254614
78,50,dublin,GEORGES LANE,George's Lane,0,0,40,5,35,OPEN,1709177972000,53.35023,-6.279696
79,110,dublin,PHIBSBOROUGH ROAD,Phibsborough Road,0,0,40,30,10,OPEN,1709177973000,53.356307,-6.273717
80,12,dublin,ECCLES STREET,Eccles Street,0,0,20,1,19,OPEN,1709177795000,53.359246,-6.269779
81,34,dublin,PORTOBELLO HARBOUR,Portobello Harbour,0,0,30,2,27,OPEN,1709177867000,53.330362,-6.265163
82,78,dublin,MATER HOSPITAL,Mater Hospital,0,0,40,20,20,OPEN,1709177848000,53.359967,-6.264828
83,2,dublin,BLESSINGTON STREET,Blessington Street,0,0,20,5,15,OPEN,1709177793000,53.356769,-6.26814
84,75,dublin,JAMES STREET,James Street,0,0,40,27,13,OPEN,1709177973000,53.343456,-6.287409
85,111,dublin,MOUNTJOY SQUARE EAST,Mountjoy Square East,0,0,40,29,11,OPEN,1709177771000,53.356717,-6.256359
86,26,dublin,MERRION SQUARE WEST,Merrion Square West,1,0,20,15,5,OPEN,1709177730000,53.339764,-6.251988
87,65,dublin,CONVENTION CENTRE,Convention Centre,1,0,40,32,8,OPEN,1709177983000,53.34744,-6.238523
88,15,dublin,HARDWICKE STREET,Hardwicke Street,0,0,16,3,13,OPEN,1709177982000,53.355473,-6.264423
89,86,dublin,PARKGATE STREET,Parkgate Street,0,0,38,4,34,OPEN,1709177740000,53.347972,-6.291804
90,35,dublin,SMITHFIELD,Smithfield,0,0,30,24,6,OPEN,1709177965000,53.347692,-6.278214
91,10,dublin,DAME STREET,Dame Street,1,0,16,6,10,OPEN,1709178011000,53.344007,-6.266802
92,100,dublin,HEUSTON BRIDGE (SOUTH),Heuston Bridge (South),0,0,25,13,12,OPEN,1709177969000,53.347106,-6.292041
93,24,dublin,CATHAL BRUGHA STREET,Cathal Brugha Street,0,0,20,0,20,OPEN,1709177911000,53.352149,-6.260533
94,64,dublin,SANDWITH STREET,Sandwith Street,0,0,40,17,23,OPEN,1709177948000,53.345203,-6.247163
95,109,dublin,BUCKINGHAM STREET LOWER,Buckingham Street Lower,0,0,29,7,22,OPEN,1709177942000,53.353331,-6.249319
96,85,dublin,ROTHE ABBEY,Rothe Abbey,0,0,35,8,27,OPEN,1709177976000,53.338776,-6.30395
97,107,dublin,CHARLEVILLE ROAD,Charleville Road,0,0,40,26,14,OPEN,1709177803000,53.359157,-6.281866
98,33,dublin,PRINCES STREET / O'CONNELL STREET,Princes Street / O'Connell Street,1,0,23,3,20,OPEN,1709177855000,53.349013,-6.260311
99,44,dublin,UPPER SHERRARD STREET,Upper Sherrard Street,0,0,30,0,30,OPEN,1709177911000,53.358437,-6.260641
100,89,dublin,FITZWILLIAM SQUARE EAST,Fitzwilliam Square East,0,0,40,40,0,OPEN,1709177952000,53.335211,-6.2509
101,57,dublin,GRATTAN STREET,Grattan Street,0,0,23,19,4,OPEN,1709177792000,53.339629,-6.243778
102,80,dublin,ST JAMES HOSPITAL (LUAS),St James Hospital (Luas),0,0,40,11,29,OPEN,1709177973000,53.341359,-6.292951
103,41,dublin,HARCOURT TERRACE,Harcourt Terrace,0,0,20,9,11,OPEN,1709178162000,53.332763,-6.257942
104,3,dublin,BOLTON STREET,Bolton Street,0,0,20,11,9,OPEN,1709177886000,53.351182,-6.269859
105,40,dublin,JERVIS STREET,Jervis Street,0,0,21,15,6,OPEN,1709178032000,53.3483,-6.266651
106,29,dublin,ORMOND QUAY UPPER,Ormond Quay Upper,0,0,29,5,23,OPEN,1709177917000,53.346057,-6.268001
107,103,dublin,GRANGEGORMAN LOWER (SOUTH),Grangegorman Lower (South),0,0,40,35,5,OPEN,1709177860000,53.354663,-6.278681
108,28,dublin,MOUNTJOY SQUARE WEST,Mountjoy Square West,0,0,30,20,10,OPEN,1709177848000,53.356299,-6.258586
109,39,dublin,WILTON TERRACE,Wilton Terrace,0,0,20,19,1,OPEN,1709177921000,53.332383,-6.252717
110,83,dublin,EMMET ROAD,Emmet Road,0,0,40,22,18,OPEN,1709177848000,53.340714,-6.308191
111,92,dublin,HEUSTON BRIDGE (NORTH),Heuston Bridge (North),0,0,40,1,39,OPEN,1709177791000,53.347802,-6.292432
112,21,dublin,LEINSTER STREET SOUTH,Leinster Street South,0,0,30,7,23,OPEN,1709177732000,53.34218,-6.254485
113,88,dublin,BLACKHALL PLACE,Blackhall Place,0,0,30,2,28,OPEN,1709177858000,53.3488,-6.281637
42,dublin,SMITHFIELD NORTH,Smithfield North,0,0,30,27,3,OPEN,1709209942000,53.349562,-6.278198
30,dublin,PARNELL SQUARE NORTH,Parnell Square North,0,0,20,9,11,OPEN,1709210065000,53.3537415547453,-6.26530144781526
54,dublin,CLONMEL STREET,Clonmel Street,0,0,33,17,16,OPEN,1709210121000,53.336021,-6.26298
108,dublin,AVONDALE ROAD,Avondale Road,0,0,35,19,16,OPEN,1709210022000,53.359405,-6.276142
20,dublin,JAMES STREET EAST,James Street East,0,0,30,9,21,OPEN,1709210114000,53.336597,-6.248109
56,dublin,MOUNT STREET LOWER,Mount Street Lower,0,0,40,20,20,OPEN,1709210031000,53.33796,-6.24153
6,dublin,CHRISTCHURCH PLACE,Christchurch Place,0,0,20,17,3,OPEN,1709209871000,53.343368,-6.27012
18,dublin,GRANTHAM STREET,Grantham Street,0,0,30,27,3,OPEN,1709210028000,53.334123,-6.265436
32,dublin,PEARSE STREET,Pearse Street,0,0,30,4,26,OPEN,1709209973000,53.344304,-6.250427
52,dublin,YORK STREET EAST,York Street East,0,0,32,29,3,OPEN,1709210071000,53.338755,-6.262003
48,dublin,EXCISE WALK,Excise Walk,0,0,40,24,16,OPEN,1709210005000,53.347777,-6.244239
13,dublin,FITZWILLIAM SQUARE WEST,Fitzwilliam Square West,0,0,30,17,13,OPEN,1709209961000,53.336074,-6.252825
43,dublin,PORTOBELLO ROAD,Portobello Road,0,0,30,30,0,OPEN,1709209989000,53.330091,-6.268044
31,dublin,PARNELL STREET,Parnell Street,0,0,20,8,12,OPEN,1709210275000,53.350929,-6.265125
98,dublin,FREDERICK STREET SOUTH,Frederick Street South,0,0,40,14,26,OPEN,1709210231000,53.341515,-6.256853
14,dublin,FOWNES STREET UPPER,Fownes Street Upper,0,0,30,21,9,OPEN,1709210250000,53.344603,-6.263371
1,dublin,CLARENDON ROW,Clarendon Row,0,0,31,26,5,OPEN,1709209903000,53.340927,-6.262501
23,dublin,CUSTOM HOUSE,Custom House,0,0,30,16,14,OPEN,1709210139000,53.348279,-6.254662
106,dublin,RATHDOWN ROAD,Rathdown Road,0,0,40,23,17,OPEN,1709210093000,53.35893,-6.280337
112,dublin,NORTH CIRCULAR ROAD (O'CONNELL'S),North Circular Road (O'Connell's),0,0,30,28,2,OPEN,1709210094000,53.357841,-6.251557
68,dublin,HANOVER QUAY,Hanover Quay,0,0,40,1,37,OPEN,1709210228000,53.344115,-6.237153
74,dublin,OLIVER BOND STREET,Oliver Bond Street,0,0,30,23,7,OPEN,1709210282000,53.343893,-6.280531
87,dublin,COLLINS BARRACKS MUSEUM,Collins Barracks Museum,0,0,38,38,0,OPEN,1709209908000,53.347477,-6.28525
84,dublin,BROOKFIELD ROAD,Brookfield Road,0,0,30,29,1,OPEN,1709210025000,53.339005,-6.300217
90,dublin,BENSON STREET,Benson Street,0,0,40,2,38,OPEN,1709210165000,53.344153,-6.233451
11,dublin,EARLSFORT TERRACE,Earlsfort Terrace,0,0,30,16,14,OPEN,1709210264000,53.334295,-6.258503
17,dublin,GOLDEN LANE,Golden Lane,0,0,20,20,0,OPEN,1709209906000,53.340803,-6.267732
45,dublin,DEVERELL PLACE,Deverell Place,0,0,30,12,18,OPEN,1709210117000,53.351464,-6.255265
114,dublin,WILTON TERRACE (PARK),Wilton Terrace (Park),0,0,40,0,40,OPEN,1709210247000,53.333653,-6.248345
72,dublin,JOHN STREET WEST,John Street West,0,0,31,28,3,OPEN,1709210018000,53.343105,-6.277167
63,dublin,FENIAN STREET,Fenian Street,0,0,35,26,9,OPEN,1709210004000,53.341428,-6.24672
113,dublin,MERRION SQUARE SOUTH,Merrion Square South,0,0,40,26,14,OPEN,1709210003000,53.338614,-6.248606
91,dublin,SOUTH DOCK ROAD,South Dock Road,0,0,30,25,5,OPEN,1709209902000,53.341833,-6.231291
99,dublin,CITY QUAY,City Quay,0,0,30,13,17,OPEN,1709210023000,53.346637,-6.246154
9,dublin,EXCHEQUER STREET,Exchequer Street,0,0,24,10,14,OPEN,1709210122000,53.343034,-6.263578
67,dublin,THE POINT,The Point,0,0,40,15,25,OPEN,1709209964000,53.346867,-6.230852
116,dublin,BROADSTONE,Broadstone,0,0,30,30,0,OPEN,1709209833000,53.3547,-6.272314
55,dublin,HATCH STREET,Hatch Street,0,0,36,16,20,OPEN,1709210156000,53.33403,-6.260714
62,dublin,LIME STREET,Lime Street,0,0,40,16,24,OPEN,1709209962000,53.346026,-6.243576
5,dublin,CHARLEMONT PLACE,Charlemont Street,0,0,40,39,1,OPEN,1709210219000,53.330662,-6.260177
97,dublin,KILMAINHAM GAOL,Kilmainham Gaol,0,0,40,23,17,OPEN,1709209934000,53.342113,-6.310015
61,dublin,HARDWICKE PLACE,Hardwicke Place,0,0,25,16,9,OPEN,1709210082000,53.357043,-6.263232
77,dublin,WOLFE TONE STREET,Wolfe Tone Street,0,0,29,26,3,OPEN,1709210000000,53.348875,-6.267459
73,dublin,FRANCIS STREET,Francis Street,0,0,30,30,0,OPEN,1709210014000,53.342081,-6.275233
4,dublin,GREEK STREET,Greek Street,0,0,20,12,8,OPEN,1709210283000,53.346874,-6.272976
49,dublin,GUILD STREET,Guild Street,0,0,40,8,32,OPEN,1709210241000,53.347932,-6.240928
19,dublin,HERBERT PLACE,Herbert Place,0,0,30,2,27,OPEN,1709210192000,53.334432,-6.245575
7,dublin,HIGH STREET,High Street,0,0,29,28,1,OPEN,1709210255000,53.343565,-6.275071
60,dublin,NORTH CIRCULAR ROAD,North Circular Road,0,0,30,23,7,OPEN,1709210112000,53.359624,-6.260348
102,dublin,WESTERN WAY,Western Way,0,0,40,34,6,OPEN,1709210228000,53.354929,-6.269425
38,dublin,TALBOT STREET,Talbot Street,0,0,40,3,37,OPEN,1709210128000,53.350974,-6.25294
53,dublin,NEWMAN HOUSE,Newman House,0,0,40,30,10,OPEN,1709209964000,53.337132,-6.26059
58,dublin,SIR PATRICK DUN'S,Sir Patrick's Dun,0,0,40,3,37,OPEN,1709210060000,53.339218,-6.240642
66,dublin,NEW CENTRAL BANK,New Central Bank,0,0,40,19,21,OPEN,1709210156000,53.347122,-6.234749
104,dublin,GRANGEGORMAN LOWER (CENTRAL),Grangegorman Lower (Central),0,0,40,28,12,OPEN,1709210003000,53.355173,-6.278424
101,dublin,KING STREET NORTH,King Street North,0,0,30,27,3,OPEN,1709209880000,53.350291,-6.273507
115,dublin,KILLARNEY STREET,Killarney Street,0,0,30,20,10,OPEN,1709210122000,53.354845,-6.247579
47,dublin,HERBERT STREET,Herbert Street,0,0,40,19,21,OPEN,1709209897000,53.335742,-6.24551
117,dublin,HANOVER QUAY EAST,Hanover Quay East,0,0,40,27,13,OPEN,1709210083000,53.343653,-6.231755
8,dublin,CUSTOM HOUSE QUAY,Custom House Quay,0,0,30,18,12,OPEN,1709210039000,53.347884,-6.248048
27,dublin,MOLESWORTH STREET,Molesworth Street,0,0,20,5,15,OPEN,1709210083000,53.341288,-6.258117
16,dublin,GEORGES QUAY,Georges Quay,0,0,20,15,5,OPEN,1709210164000,53.347508,-6.252192
96,dublin,KILMAINHAM LANE,Kilmainham Lane,0,0,30,18,12,OPEN,1709209827000,53.341805,-6.305085
82,dublin,MOUNT BROWN,Mount Brown,0,0,22,20,2,OPEN,1709209915000,53.341645,-6.29719
76,dublin,MARKET STREET SOUTH,Market Street South,0,0,38,37,1,OPEN,1709209846000,53.342296,-6.287661
71,dublin,KEVIN STREET,Kevin Street,0,0,40,38,2,OPEN,1709209946000,53.337757,-6.267699
79,dublin,ECCLES STREET EAST,Eccles Street East,0,0,27,26,1,OPEN,1709210091000,53.358115,-6.265601
69,dublin,GRAND CANAL DOCK,Grand Canal Dock,0,0,40,4,34,OPEN,1709210132000,53.342638,-6.238695
25,dublin,MERRION SQUARE EAST,Merrion Square East,0,0,30,7,23,OPEN,1709210153000,53.339434,-6.246548
51,dublin,YORK STREET WEST,York Street West,0,0,40,32,8,OPEN,1709209835000,53.339334,-6.264699
37,dublin,ST. STEPHEN'S GREEN SOUTH,St. Stephen's Green South,1,0,30,28,2,OPEN,1709209961000,53.337494,-6.26199
59,dublin,DENMARK STREET GREAT,Denmark Street Great,0,0,20,20,0,OPEN,1709210012000,53.35561,-6.261397
95,dublin,ROYAL HOSPITAL,Royal Hospital,0,0,40,23,17,OPEN,1709210102000,53.343897,-6.29706
94,dublin,HEUSTON STATION (CAR PARK),Heuston Station (Car Park),0,0,40,40,0,OPEN,1709210016000,53.346985,-6.297804
105,dublin,GRANGEGORMAN LOWER (NORTH),Grangegorman Lower (North),0,0,36,18,18,OPEN,1709210101000,53.355954,-6.278378
36,dublin,ST. STEPHEN'S GREEN EAST,St. Stephen's Green East,0,0,40,16,24,OPEN,1709209900000,53.337824,-6.256035
93,dublin,HEUSTON STATION (CENTRAL),Heuston Station (Central),0,0,40,40,0,OPEN,1709209968000,53.346603,-6.296924
22,dublin,TOWNSEND STREET,Townsend Street,0,0,20,8,12,OPEN,1709210199000,53.345922,-6.254614
50,dublin,GEORGES LANE,George's Lane,0,0,40,32,8,OPEN,1709210137000,53.35023,-6.279696
110,dublin,PHIBSBOROUGH ROAD,Phibsborough Road,0,0,40,40,0,OPEN,1709210091000,53.356307,-6.273717
12,dublin,ECCLES STREET,Eccles Street,0,0,20,20,0,OPEN,1709209912000,53.359246,-6.269779
34,dublin,PORTOBELLO HARBOUR,Portobello Harbour,0,0,30,29,1,OPEN,1709210124000,53.330362,-6.265163
78,dublin,MATER HOSPITAL,Mater Hospital,0,0,40,12,28,OPEN,1709209993000,53.359967,-6.264828
2,dublin,BLESSINGTON STREET,Blessington Street,0,0,20,20,0,OPEN,1709209917000,53.356769,-6.26814
75,dublin,JAMES STREET,James Street,0,0,40,20,20,OPEN,1709210139000,53.343456,-6.287409
111,dublin,MOUNTJOY SQUARE EAST,Mountjoy Square East,0,0,40,39,1,OPEN,1709209879000,53.356717,-6.256359
26,dublin,MERRION SQUARE WEST,Merrion Square West,1,0,20,3,17,OPEN,1709210153000,53.339764,-6.251988
65,dublin,CONVENTION CENTRE,Convention Centre,1,0,40,19,21,OPEN,1709210158000,53.34744,-6.238523
15,dublin,HARDWICKE STREET,Hardwicke Street,0,0,16,13,3,OPEN,1709210112000,53.355473,-6.264423
86,dublin,PARKGATE STREET,Parkgate Street,0,0,38,38,0,OPEN,1709209894000,53.347972,-6.291804
35,dublin,SMITHFIELD,Smithfield,0,0,30,26,4,OPEN,1709210115000,53.347692,-6.278214
10,dublin,DAME STREET,Dame Street,1,0,16,10,5,OPEN,1709210227000,53.344007,-6.266802
100,dublin,HEUSTON BRIDGE (SOUTH),Heuston Bridge (South),0,0,25,22,3,OPEN,1709210130000,53.347106,-6.292041
24,dublin,CATHAL BRUGHA STREET,Cathal Brugha Street,0,0,20,20,0,OPEN,1709210048000,53.352149,-6.260533
64,dublin,SANDWITH STREET,Sandwith Street,0,0,40,12,28,OPEN,1709210175000,53.345203,-6.247163
109,dublin,BUCKINGHAM STREET LOWER,Buckingham Street Lower,0,0,29,5,24,OPEN,1709210056000,53.353331,-6.249319
85,dublin,ROTHE ABBEY,Rothe Abbey,0,0,35,16,19,OPEN,1709210108000,53.338776,-6.30395
107,dublin,CHARLEVILLE ROAD,Charleville Road,0,0,40,25,15,OPEN,1709209936000,53.359157,-6.281866
33,dublin,PRINCES STREET / O'CONNELL STREET,Princes Street / O'Connell Street,1,0,23,16,7,OPEN,1709210108000,53.349013,-6.260311
44,dublin,UPPER SHERRARD STREET,Upper Sherrard Street,0,0,30,27,3,OPEN,1709210142000,53.358437,-6.260641
89,dublin,FITZWILLIAM SQUARE EAST,Fitzwilliam Square East,0,0,40,26,14,OPEN,1709210064000,53.335211,-6.2509
57,dublin,GRATTAN STREET,Grattan Street,0,0,23,12,11,OPEN,1709209909000,53.339629,-6.243778
80,dublin,ST JAMES HOSPITAL (LUAS),St James Hospital (Luas),0,0,40,24,16,OPEN,1709210143000,53.341359,-6.292951
41,dublin,HARCOURT TERRACE,Harcourt Terrace,0,0,20,20,0,OPEN,1709209866000,53.332763,-6.257942
3,dublin,BOLTON STREET,Bolton Street,0,0,20,5,15,OPEN,1709210018000,53.351182,-6.269859
40,dublin,JERVIS STREET,Jervis Street,0,0,21,13,8,OPEN,1709210175000,53.3483,-6.266651
29,dublin,ORMOND QUAY UPPER,Ormond Quay Upper,0,0,29,21,8,OPEN,1709210083000,53.346057,-6.268001
103,dublin,GRANGEGORMAN LOWER (SOUTH),Grangegorman Lower (South),0,0,40,22,18,OPEN,1709209987000,53.354663,-6.278681
28,dublin,MOUNTJOY SQUARE WEST,Mountjoy Square West,0,0,30,17,13,OPEN,1709210027000,53.356299,-6.258586
39,dublin,WILTON TERRACE,Wilton Terrace,0,0,20,15,5,OPEN,1709210101000,53.332383,-6.252717
83,dublin,EMMET ROAD,Emmet Road,0,0,40,35,5,OPEN,1709209972000,53.340714,-6.308191
92,dublin,HEUSTON BRIDGE (NORTH),Heuston Bridge (North),0,0,40,40,0,OPEN,1709209940000,53.347802,-6.292432
21,dublin,LEINSTER STREET SOUTH,Leinster Street South,0,0,30,0,30,OPEN,1709209877000,53.34218,-6.254485
88,dublin,BLACKHALL PLACE,Blackhall Place,0,0,30,19,11,OPEN,1709210012000,53.3488,-6.281637
42,dublin,SMITHFIELD NORTH,Smithfield North,0,0,30,27,3,OPEN,1709209942000,53.349562,-6.278198
30,dublin,PARNELL SQUARE NORTH,Parnell Square North,0,0,20,9,11,OPEN,1709210065000,53.3537415547453,-6.26530144781526
54,dublin,CLONMEL STREET,Clonmel Street,0,0,33,17,16,OPEN,1709210121000,53.336021,-6.26298
108,dublin,AVONDALE ROAD,Avondale Road,0,0,35,19,16,OPEN,1709210022000,53.359405,-6.276142
20,dublin,JAMES STREET EAST,James Street East,0,0,30,9,21,OPEN,1709210114000,53.336597,-6.248109
56,dublin,MOUNT STREET LOWER,Mount Street Lower,0,0,40,20,20,OPEN,1709210031000,53.33796,-6.24153
6,dublin,CHRISTCHURCH PLACE,Christchurch Place,0,0,20,17,3,OPEN,1709209871000,53.343368,-6.27012
18,dublin,GRANTHAM STREET,Grantham Street,0,0,30,27,3,OPEN,1709210028000,53.334123,-6.265436
32,dublin,PEARSE STREET,Pearse Street,0,0,30,4,26,OPEN,1709209973000,53.344304,-6.250427
52,dublin,YORK STREET EAST,York Street East,0,0,32,29,3,OPEN,1709210071000,53.338755,-6.262003
48,dublin,EXCISE WALK,Excise Walk,0,0,40,24,16,OPEN,1709210005000,53.347777,-6.244239
13,dublin,FITZWILLIAM SQUARE WEST,Fitzwilliam Square West,0,0,30,17,13,OPEN,1709209961000,53.336074,-6.252825
43,dublin,PORTOBELLO ROAD,Portobello Road,0,0,30,30,0,OPEN,1709209989000,53.330091,-6.268044
31,dublin,PARNELL STREET,Parnell Street,0,0,20,8,12,OPEN,1709210275000,53.350929,-6.265125
98,dublin,FREDERICK STREET SOUTH,Frederick Street South,0,0,40,14,26,OPEN,1709210231000,53.341515,-6.256853
14,dublin,FOWNES STREET UPPER,Fownes Street Upper,0,0,30,21,9,OPEN,1709210250000,53.344603,-6.263371
1,dublin,CLARENDON ROW,Clarendon Row,0,0,31,26,5,OPEN,1709209903000,53.340927,-6.262501
23,dublin,CUSTOM HOUSE,Custom House,0,0,30,16,14,OPEN,1709210139000,53.348279,-6.254662
106,dublin,RATHDOWN ROAD,Rathdown Road,0,0,40,23,17,OPEN,1709210093000,53.35893,-6.280337
112,dublin,NORTH CIRCULAR ROAD (O'CONNELL'S),North Circular Road (O'Connell's),0,0,30,28,2,OPEN,1709210094000,53.357841,-6.251557
68,dublin,HANOVER QUAY,Hanover Quay,0,0,40,1,37,OPEN,1709210228000,53.344115,-6.237153
74,dublin,OLIVER BOND STREET,Oliver Bond Street,0,0,30,23,7,OPEN,1709210282000,53.343893,-6.280531
87,dublin,COLLINS BARRACKS MUSEUM,Collins Barracks Museum,0,0,38,38,0,OPEN,1709209908000,53.347477,-6.28525
84,dublin,BROOKFIELD ROAD,Brookfield Road,0,0,30,29,1,OPEN,1709210025000,53.339005,-6.300217
90,dublin,BENSON STREET,Benson Street,0,0,40,2,38,OPEN,1709210165000,53.344153,-6.233451
11,dublin,EARLSFORT TERRACE,Earlsfort Terrace,0,0,30,16,14,OPEN,1709210264000,53.334295,-6.258503
17,dublin,GOLDEN LANE,Golden Lane,0,0,20,20,0,OPEN,1709209906000,53.340803,-6.267732
45,dublin,DEVERELL PLACE,Deverell Place,0,0,30,12,18,OPEN,1709210117000,53.351464,-6.255265
114,dublin,WILTON TERRACE (PARK),Wilton Terrace (Park),0,0,40,0,40,OPEN,1709210247000,53.333653,-6.248345
72,dublin,JOHN STREET WEST,John Street West,0,0,31,28,3,OPEN,1709210018000,53.343105,-6.277167
63,dublin,FENIAN STREET,Fenian Street,0,0,35,26,9,OPEN,1709210004000,53.341428,-6.24672
113,dublin,MERRION SQUARE SOUTH,Merrion Square South,0,0,40,26,14,OPEN,1709210003000,53.338614,-6.248606
91,dublin,SOUTH DOCK ROAD,South Dock Road,0,0,30,25,5,OPEN,1709209902000,53.341833,-6.231291
99,dublin,CITY QUAY,City Quay,0,0,30,13,17,OPEN,1709210023000,53.346637,-6.246154
9,dublin,EXCHEQUER STREET,Exchequer Street,0,0,24,10,14,OPEN,1709210122000,53.343034,-6.263578
67,dublin,THE POINT,The Point,0,0,40,15,25,OPEN,1709209964000,53.346867,-6.230852
116,dublin,BROADSTONE,Broadstone,0,0,30,30,0,OPEN,1709209833000,53.3547,-6.272314
55,dublin,HATCH STREET,Hatch Street,0,0,36,16,20,OPEN,1709210156000,53.33403,-6.260714
62,dublin,LIME STREET,Lime Street,0,0,40,16,24,OPEN,1709209962000,53.346026,-6.243576
5,dublin,CHARLEMONT PLACE,Charlemont Street,0,0,40,39,1,OPEN,1709210219000,53.330662,-6.260177
97,dublin,KILMAINHAM GAOL,Kilmainham Gaol,0,0,40,23,17,OPEN,1709209934000,53.342113,-6.310015
61,dublin,HARDWICKE PLACE,Hardwicke Place,0,0,25,16,9,OPEN,1709210082000,53.357043,-6.263232
77,dublin,WOLFE TONE STREET,Wolfe Tone Street,0,0,29,26,3,OPEN,1709210000000,53.348875,-6.267459
73,dublin,FRANCIS STREET,Francis Street,0,0,30,30,0,OPEN,1709210014000,53.342081,-6.275233
4,dublin,GREEK STREET,Greek Street,0,0,20,12,8,OPEN,1709210283000,53.346874,-6.272976
49,dublin,GUILD STREET,Guild Street,0,0,40,8,32,OPEN,1709210241000,53.347932,-6.240928
19,dublin,HERBERT PLACE,Herbert Place,0,0,30,2,27,OPEN,1709210192000,53.334432,-6.245575
7,dublin,HIGH STREET,High Street,0,0,29,28,1,OPEN,1709210255000,53.343565,-6.275071
60,dublin,NORTH CIRCULAR ROAD,North Circular Road,0,0,30,23,7,OPEN,1709210112000,53.359624,-6.260348
102,dublin,WESTERN WAY,Western Way,0,0,40,34,6,OPEN,1709210228000,53.354929,-6.269425
38,dublin,TALBOT STREET,Talbot Street,0,0,40,3,37,OPEN,1709210128000,53.350974,-6.25294
53,dublin,NEWMAN HOUSE,Newman House,0,0,40,30,10,OPEN,1709209964000,53.337132,-6.26059
58,dublin,SIR PATRICK DUN'S,Sir Patrick's Dun,0,0,40,3,37,OPEN,1709210060000,53.339218,-6.240642
66,dublin,NEW CENTRAL BANK,New Central Bank,0,0,40,19,21,OPEN,1709210156000,53.347122,-6.234749
104,dublin,GRANGEGORMAN LOWER (CENTRAL),Grangegorman Lower (Central),0,0,40,28,12,OPEN,1709210003000,53.355173,-6.278424
101,dublin,KING STREET NORTH,King Street North,0,0,30,27,3,OPEN,1709209880000,53.350291,-6.273507
115,dublin,KILLARNEY STREET,Killarney Street,0,0,30,20,10,OPEN,1709210122000,53.354845,-6.247579
47,dublin,HERBERT STREET,Herbert Street,0,0,40,19,21,OPEN,1709209897000,53.335742,-6.24551
117,dublin,HANOVER QUAY EAST,Hanover Quay East,0,0,40,27,13,OPEN,1709210083000,53.343653,-6.231755
8,dublin,CUSTOM HOUSE QUAY,Custom House Quay,0,0,30,18,12,OPEN,1709210039000,53.347884,-6.248048
27,dublin,MOLESWORTH STREET,Molesworth Street,0,0,20,5,15,OPEN,1709210083000,53.341288,-6.258117
16,dublin,GEORGES QUAY,Georges Quay,0,0,20,15,5,OPEN,1709210164000,53.347508,-6.252192
96,dublin,KILMAINHAM LANE,Kilmainham Lane,0,0,30,18,12,OPEN,1709209827000,53.341805,-6.305085
82,dublin,MOUNT BROWN,Mount Brown,0,0,22,20,2,OPEN,1709209915000,53.341645,-6.29719
76,dublin,MARKET STREET SOUTH,Market Street South,0,0,38,37,1,OPEN,1709209846000,53.342296,-6.287661
71,dublin,KEVIN STREET,Kevin Street,0,0,40,38,2,OPEN,1709209946000,53.337757,-6.267699
79,dublin,ECCLES STREET EAST,Eccles Street East,0,0,27,26,1,OPEN,1709210091000,53.358115,-6.265601
69,dublin,GRAND CANAL DOCK,Grand Canal Dock,0,0,40,4,34,OPEN,1709210132000,53.342638,-6.238695
25,dublin,MERRION SQUARE EAST,Merrion Square East,0,0,30,7,23,OPEN,1709210153000,53.339434,-6.246548
51,dublin,YORK STREET WEST,York Street West,0,0,40,32,8,OPEN,1709209835000,53.339334,-6.264699
37,dublin,ST. STEPHEN'S GREEN SOUTH,St. Stephen's Green South,1,0,30,28,2,OPEN,1709209961000,53.337494,-6.26199
59,dublin,DENMARK STREET GREAT,Denmark Street Great,0,0,20,20,0,OPEN,1709210012000,53.35561,-6.261397
95,dublin,ROYAL HOSPITAL,Royal Hospital,0,0,40,23,17,OPEN,1709210102000,53.343897,-6.29706
94,dublin,HEUSTON STATION (CAR PARK),Heuston Station (Car Park),0,0,40,40,0,OPEN,1709210016000,53.346985,-6.297804
105,dublin,GRANGEGORMAN LOWER (NORTH),Grangegorman Lower (North),0,0,36,18,18,OPEN,1709210101000,53.355954,-6.278378
36,dublin,ST. STEPHEN'S GREEN EAST,St. Stephen's Green East,0,0,40,16,24,OPEN,1709209900000,53.337824,-6.256035
93,dublin,HEUSTON STATION (CENTRAL),Heuston Station (Central),0,0,40,40,0,OPEN,1709209968000,53.346603,-6.296924
22,dublin,TOWNSEND STREET,Townsend Street,0,0,20,8,12,OPEN,1709210199000,53.345922,-6.254614
50,dublin,GEORGES LANE,George's Lane,0,0,40,32,8,OPEN,1709210137000,53.35023,-6.279696
110,dublin,PHIBSBOROUGH ROAD,Phibsborough Road,0,0,40,40,0,OPEN,1709210091000,53.356307,-6.273717
12,dublin,ECCLES STREET,Eccles Street,0,0,20,20,0,OPEN,1709209912000,53.359246,-6.269779
34,dublin,PORTOBELLO HARBOUR,Portobello Harbour,0,0,30,29,1,OPEN,1709210124000,53.330362,-6.265163
78,dublin,MATER HOSPITAL,Mater Hospital,0,0,40,12,28,OPEN,1709209993000,53.359967,-6.264828
2,dublin,BLESSINGTON STREET,Blessington Street,0,0,20,20,0,OPEN,1709209917000,53.356769,-6.26814
75,dublin,JAMES STREET,James Street,0,0,40,20,20,OPEN,1709210139000,53.343456,-6.287409
111,dublin,MOUNTJOY SQUARE EAST,Mountjoy Square East,0,0,40,39,1,OPEN,1709209879000,53.356717,-6.256359
26,dublin,MERRION SQUARE WEST,Merrion Square West,1,0,20,3,17,OPEN,1709210153000,53.339764,-6.251988
65,dublin,CONVENTION CENTRE,Convention Centre,1,0,40,19,21,OPEN,1709210158000,53.34744,-6.238523
15,dublin,HARDWICKE STREET,Hardwicke Street,0,0,16,13,3,OPEN,1709210112000,53.355473,-6.264423
86,dublin,PARKGATE STREET,Parkgate Street,0,0,38,38,0,OPEN,1709209894000,53.347972,-6.291804
35,dublin,SMITHFIELD,Smithfield,0,0,30,26,4,OPEN,1709210115000,53.347692,-6.278214
10,dublin,DAME STREET,Dame Street,1,0,16,10,5,OPEN,1709210227000,53.344007,-6.266802
100,dublin,HEUSTON BRIDGE (SOUTH),Heuston Bridge (South),0,0,25,22,3,OPEN,1709210130000,53.347106,-6.292041
24,dublin,CATHAL BRUGHA STREET,Cathal Brugha Street,0,0,20,20,0,OPEN,1709210048000,53.352149,-6.260533
64,dublin,SANDWITH STREET,Sandwith Street,0,0,40,12,28,OPEN,1709210175000,53.345203,-6.247163
109,dublin,BUCKINGHAM STREET LOWER,Buckingham Street Lower,0,0,29,5,24,OPEN,1709210056000,53.353331,-6.249319
85,dublin,ROTHE ABBEY,Rothe Abbey,0,0,35,16,19,OPEN,1709210108000,53.338776,-6.30395
107,dublin,CHARLEVILLE ROAD,Charleville Road,0,0,40,25,15,OPEN,1709209936000,53.359157,-6.281866
33,dublin,PRINCES STREET / O'CONNELL STREET,Princes Street / O'Connell Street,1,0,23,16,7,OPEN,1709210108000,53.349013,-6.260311
44,dublin,UPPER SHERRARD STREET,Upper Sherrard Street,0,0,30,27,3,OPEN,1709210142000,53.358437,-6.260641
89,dublin,FITZWILLIAM SQUARE EAST,Fitzwilliam Square East,0,0,40,26,14,OPEN,1709210064000,53.335211,-6.2509
57,dublin,GRATTAN STREET,Grattan Street,0,0,23,12,11,OPEN,1709209909000,53.339629,-6.243778
80,dublin,ST JAMES HOSPITAL (LUAS),St James Hospital (Luas),0,0,40,24,16,OPEN,1709210143000,53.341359,-6.292951
41,dublin,HARCOURT TERRACE,Harcourt Terrace,0,0,20,20,0,OPEN,1709209866000,53.332763,-6.257942
3,dublin,BOLTON STREET,Bolton Street,0,0,20,5,15,OPEN,1709210018000,53.351182,-6.269859
40,dublin,JERVIS STREET,Jervis Street,0,0,21,13,8,OPEN,1709210175000,53.3483,-6.266651
29,dublin,ORMOND QUAY UPPER,Ormond Quay Upper,0,0,29,21,8,OPEN,1709210083000,53.346057,-6.268001
103,dublin,GRANGEGORMAN LOWER (SOUTH),Grangegorman Lower (South),0,0,40,22,18,OPEN,1709209987000,53.354663,-6.278681
28,dublin,MOUNTJOY SQUARE WEST,Mountjoy Square West,0,0,30,17,13,OPEN,1709210027000,53.356299,-6.258586
39,dublin,WILTON TERRACE,Wilton Terrace,0,0,20,15,5,OPEN,1709210101000,53.332383,-6.252717
83,dublin,EMMET ROAD,Emmet Road,0,0,40,35,5,OPEN,1709209972000,53.340714,-6.308191
92,dublin,HEUSTON BRIDGE (NORTH),Heuston Bridge (North),0,0,40,40,0,OPEN,1709209940000,53.347802,-6.292432
21,dublin,LEINSTER STREET SOUTH,Leinster Street South,0,0,30,0,30,OPEN,1709209877000,53.34218,-6.254485
88,dublin,BLACKHALL PLACE,Blackhall Place,0,0,30,19,11,OPEN,1709210012000,53.3488,-6.281637
42,dublin,SMITHFIELD NORTH,Smithfield North,0,0,30,25,5,OPEN,1709212104000,53.349562,-6.278198
30,dublin,PARNELL SQUARE NORTH,Parnell Square North,0,0,20,10,10,OPEN,1709211885000,53.3537415547453,-6.26530144781526
54,dublin,CLONMEL STREET,Clonmel Street,0,0,33,18,15,OPEN,1709211940000,53.336021,-6.26298
108,dublin,AVONDALE ROAD,Avondale Road,0,0,35,18,17,OPEN,1709211839000,53.359405,-6.276142
20,dublin,JAMES STREET EAST,James Street East,0,0,30,9,21,OPEN,1709211935000,53.336597,-6.248109
56,dublin,MOUNT STREET LOWER,Mount Street Lower,0,0,40,21,19,OPEN,1709211803000,53.33796,-6.24153
6,dublin,CHRISTCHURCH PLACE,Christchurch Place,0,0,20,20,0,OPEN,1709211903000,53.343368,-6.27012
18,dublin,GRANTHAM STREET,Grantham Street,0,0,30,30,0,OPEN,1709211849000,53.334123,-6.265436
32,dublin,PEARSE STREET,Pearse Street,0,0,30,4,26,OPEN,1709212075000,53.344304,-6.250427
52,dublin,YORK STREET EAST,York Street East,0,0,32,30,2,OPEN,1709211905000,53.338755,-6.262003
48,dublin,EXCISE WALK,Excise Walk,0,0,40,23,17,OPEN,1709211825000,53.347777,-6.244239
13,dublin,FITZWILLIAM SQUARE WEST,Fitzwilliam Square West,0,0,30,14,16,OPEN,1709211778000,53.336074,-6.252825
43,dublin,PORTOBELLO ROAD,Portobello Road,0,0,30,29,1,OPEN,1709212005000,53.330091,-6.268044
31,dublin,PARNELL STREET,Parnell Street,0,0,20,5,15,OPEN,1709211701000,53.350929,-6.265125
98,dublin,FREDERICK STREET SOUTH,Frederick Street South,0,0,40,12,28,OPEN,1709211980000,53.341515,-6.256853
14,dublin,FOWNES STREET UPPER,Fownes Street Upper,0,0,30,19,11,OPEN,1709211947000,53.344603,-6.263371
1,dublin,CLARENDON ROW,Clarendon Row,0,0,31,27,4,OPEN,1709211881000,53.340927,-6.262501
23,dublin,CUSTOM HOUSE,Custom House,0,0,30,16,14,OPEN,1709212144000,53.348279,-6.254662
106,dublin,RATHDOWN ROAD,Rathdown Road,0,0,40,22,18,OPEN,1709211780000,53.35893,-6.280337
112,dublin,NORTH CIRCULAR ROAD (O'CONNELL'S),North Circular Road (O'Connell's),0,0,30,30,0,OPEN,1709211790000,53.357841,-6.251557
68,dublin,HANOVER QUAY,Hanover Quay,0,0,40,5,35,OPEN,1709212048000,53.344115,-6.237153
74,dublin,OLIVER BOND STREET,Oliver Bond Street,0,0,30,22,8,OPEN,1709211866000,53.343893,-6.280531
87,dublin,COLLINS BARRACKS MUSEUM,Collins Barracks Museum,0,0,38,36,2,OPEN,1709211813000,53.347477,-6.28525
84,dublin,BROOKFIELD ROAD,Brookfield Road,0,0,30,29,1,OPEN,1709211894000,53.339005,-6.300217
90,dublin,BENSON STREET,Benson Street,0,0,40,2,38,OPEN,1709211987000,53.344153,-6.233451
11,dublin,EARLSFORT TERRACE,Earlsfort Terrace,0,0,30,16,14,OPEN,1709211672000,53.334295,-6.258503
17,dublin,GOLDEN LANE,Golden Lane,0,0,20,20,0,OPEN,1709211925000,53.340803,-6.267732
45,dublin,DEVERELL PLACE,Deverell Place,0,0,30,12,18,OPEN,1709211934000,53.351464,-6.255265
114,dublin,WILTON TERRACE (PARK),Wilton Terrace (Park),0,0,40,8,32,OPEN,1709211956000,53.333653,-6.248345
72,dublin,JOHN STREET WEST,John Street West,0,0,31,31,0,OPEN,1709211838000,53.343105,-6.277167
63,dublin,FENIAN STREET,Fenian Street,0,0,35,25,10,OPEN,1709211800000,53.341428,-6.24672
113,dublin,MERRION SQUARE SOUTH,Merrion Square South,0,0,40,26,14,OPEN,1709211819000,53.338614,-6.248606
91,dublin,SOUTH DOCK ROAD,South Dock Road,0,0,30,23,7,OPEN,1709211933000,53.341833,-6.231291
99,dublin,CITY QUAY,City Quay,0,0,30,13,17,OPEN,1709211843000,53.346637,-6.246154
9,dublin,EXCHEQUER STREET,Exchequer Street,0,0,24,6,18,OPEN,1709212022000,53.343034,-6.263578
67,dublin,THE POINT,The Point,0,0,40,17,23,OPEN,1709212055000,53.346867,-6.230852
116,dublin,BROADSTONE,Broadstone,0,0,30,29,1,OPEN,1709212003000,53.3547,-6.272314
55,dublin,HATCH STREET,Hatch Street,0,0,36,18,18,OPEN,1709211976000,53.33403,-6.260714
62,dublin,LIME STREET,Lime Street,0,0,40,16,24,OPEN,1709211987000,53.346026,-6.243576
5,dublin,CHARLEMONT PLACE,Charlemont Street,0,0,40,39,1,OPEN,1709212039000,53.330662,-6.260177
97,dublin,KILMAINHAM GAOL,Kilmainham Gaol,0,0,40,23,17,OPEN,1709211752000,53.342113,-6.310015
61,dublin,HARDWICKE PLACE,Hardwicke Place,0,0,25,18,7,OPEN,1709211657000,53.357043,-6.263232
77,dublin,WOLFE TONE STREET,Wolfe Tone Street,0,0,29,22,7,OPEN,1709212113000,53.348875,-6.267459
73,dublin,FRANCIS STREET,Francis Street,0,0,30,30,0,OPEN,1709211833000,53.342081,-6.275233
4,dublin,GREEK STREET,Greek Street,0,0,20,14,6,OPEN,1709211830000,53.346874,-6.272976
49,dublin,GUILD STREET,Guild Street,0,0,40,8,32,OPEN,1709212010000,53.347932,-6.240928
19,dublin,HERBERT PLACE,Herbert Place,0,0,30,10,20,OPEN,1709212022000,53.334432,-6.245575
7,dublin,HIGH STREET,High Street,0,0,29,29,0,OPEN,1709211762000,53.343565,-6.275071
60,dublin,NORTH CIRCULAR ROAD,North Circular Road,0,0,30,14,16,OPEN,1709212001000,53.359624,-6.260348
102,dublin,WESTERN WAY,Western Way,0,0,40,33,7,OPEN,1709211962000,53.354929,-6.269425
38,dublin,TALBOT STREET,Talbot Street,0,0,40,3,37,OPEN,1709211968000,53.350974,-6.25294
53,dublin,NEWMAN HOUSE,Newman House,0,0,40,30,10,OPEN,1709211780000,53.337132,-6.26059
58,dublin,SIR PATRICK DUN'S,Sir Patrick's Dun,0,0,40,1,39,OPEN,1709212052000,53.339218,-6.240642
66,dublin,NEW CENTRAL BANK,New Central Bank,0,0,40,17,23,OPEN,1709212054000,53.347122,-6.234749
104,dublin,GRANGEGORMAN LOWER (CENTRAL),Grangegorman Lower (Central),0,0,40,28,12,OPEN,1709212099000,53.355173,-6.278424
101,dublin,KING STREET NORTH,King Street North,0,0,30,27,3,OPEN,1709211696000,53.350291,-6.273507
115,dublin,KILLARNEY STREET,Killarney Street,0,0,30,26,4,OPEN,1709212129000,53.354845,-6.247579
47,dublin,HERBERT STREET,Herbert Street,0,0,40,19,21,OPEN,1709211712000,53.335742,-6.24551
117,dublin,HANOVER QUAY EAST,Hanover Quay East,0,0,40,26,14,OPEN,1709211714000,53.343653,-6.231755
8,dublin,CUSTOM HOUSE QUAY,Custom House Quay,0,0,30,13,17,OPEN,1709212116000,53.347884,-6.248048
27,dublin,MOLESWORTH STREET,Molesworth Street,0,0,20,5,15,OPEN,1709212136000,53.341288,-6.258117
16,dublin,GEORGES QUAY,Georges Quay,0,0,20,15,5,OPEN,1709211801000,53.347508,-6.252192
96,dublin,KILMAINHAM LANE,Kilmainham Lane,0,0,30,18,12,OPEN,1709211642000,53.341805,-6.305085
82,dublin,MOUNT BROWN,Mount Brown,0,0,22,19,3,OPEN,1709211860000,53.341645,-6.29719
76,dublin,MARKET STREET SOUTH,Market Street South,0,0,38,37,1,OPEN,1709211664000,53.342296,-6.287661
71,dublin,KEVIN STREET,Kevin Street,0,0,40,38,2,OPEN,1709212080000,53.337757,-6.267699
79,dublin,ECCLES STREET EAST,Eccles Street East,0,0,27,26,1,OPEN,1709211819000,53.358115,-6.265601
69,dublin,GRAND CANAL DOCK,Grand Canal Dock,0,0,40,17,23,OPEN,1709212107000,53.342638,-6.238695
25,dublin,MERRION SQUARE EAST,Merrion Square East,0,0,30,8,22,OPEN,1709212013000,53.339434,-6.246548
51,dublin,YORK STREET WEST,York Street West,0,0,40,32,8,OPEN,1709211653000,53.339334,-6.264699
37,dublin,ST. STEPHEN'S GREEN SOUTH,St. Stephen's Green South,1,0,30,28,2,OPEN,1709211779000,53.337494,-6.26199
59,dublin,DENMARK STREET GREAT,Denmark Street Great,0,0,20,19,1,OPEN,1709211828000,53.35561,-6.261397
95,dublin,ROYAL HOSPITAL,Royal Hospital,0,0,40,27,13,OPEN,1709212094000,53.343897,-6.29706
94,dublin,HEUSTON STATION (CAR PARK),Heuston Station (Car Park),0,0,40,40,0,OPEN,1709211832000,53.346985,-6.297804
105,dublin,GRANGEGORMAN LOWER (NORTH),Grangegorman Lower (North),0,0,36,19,17,OPEN,1709211919000,53.355954,-6.278378
36,dublin,ST. STEPHEN'S GREEN EAST,St. Stephen's Green East,0,0,40,15,25,OPEN,1709211719000,53.337824,-6.256035
93,dublin,HEUSTON STATION (CENTRAL),Heuston Station (Central),0,0,40,40,0,OPEN,1709211783000,53.346603,-6.296924
22,dublin,TOWNSEND STREET,Townsend Street,0,0,20,15,5,OPEN,1709212085000,53.345922,-6.254614
50,dublin,GEORGES LANE,George's Lane,0,0,40,35,5,OPEN,1709211959000,53.35023,-6.279696
110,dublin,PHIBSBOROUGH ROAD,Phibsborough Road,0,0,40,40,0,OPEN,1709211907000,53.356307,-6.273717
12,dublin,ECCLES STREET,Eccles Street,0,0,20,18,2,OPEN,1709212129000,53.359246,-6.269779
34,dublin,PORTOBELLO HARBOUR,Portobello Harbour,0,0,30,30,0,OPEN,1709211911000,53.330362,-6.265163
78,dublin,MATER HOSPITAL,Mater Hospital,0,0,40,13,27,OPEN,1709211811000,53.359967,-6.264828
2,dublin,BLESSINGTON STREET,Blessington Street,0,0,20,18,2,OPEN,1709211988000,53.356769,-6.26814
75,dublin,JAMES STREET,James Street,0,0,40,25,15,OPEN,1709211962000,53.343456,-6.287409
111,dublin,MOUNTJOY SQUARE EAST,Mountjoy Square East,0,0,40,39,1,OPEN,1709211696000,53.356717,-6.256359
26,dublin,MERRION SQUARE WEST,Merrion Square West,1,0,20,5,15,OPEN,1709212100000,53.339764,-6.251988
65,dublin,CONVENTION CENTRE,Convention Centre,1,0,40,19,21,OPEN,1709211980000,53.34744,-6.238523
15,dublin,HARDWICKE STREET,Hardwicke Street,0,0,16,15,1,OPEN,1709211929000,53.355473,-6.264423
86,dublin,PARKGATE STREET,Parkgate Street,0,0,38,38,0,OPEN,1709211743000,53.347972,-6.291804
35,dublin,SMITHFIELD,Smithfield,0,0,30,27,3,OPEN,1709212062000,53.347692,-6.278214
10,dublin,DAME STREET,Dame Street,1,0,16,8,7,OPEN,1709212014000,53.344007,-6.266802
100,dublin,HEUSTON BRIDGE (SOUTH),Heuston Bridge (South),0,0,25,23,2,OPEN,1709212140000,53.347106,-6.292041
24,dublin,CATHAL BRUGHA STREET,Cathal Brugha Street,0,0,20,20,0,OPEN,1709211864000,53.352149,-6.260533
64,dublin,SANDWITH STREET,Sandwith Street,0,0,40,16,24,OPEN,1709211940000,53.345203,-6.247163
109,dublin,BUCKINGHAM STREET LOWER,Buckingham Street Lower,0,0,29,6,23,OPEN,1709212054000,53.353331,-6.249319
85,dublin,ROTHE ABBEY,Rothe Abbey,0,0,35,18,17,OPEN,1709212048000,53.338776,-6.30395
107,dublin,CHARLEVILLE ROAD,Charleville Road,0,0,40,26,14,OPEN,1709211755000,53.359157,-6.281866
33,dublin,PRINCES STREET / O'CONNELL STREET,Princes Street / O'Connell Street,1,0,23,16,7,OPEN,1709212001000,53.349013,-6.260311
44,dublin,UPPER SHERRARD STREET,Upper Sherrard Street,0,0,30,30,0,OPEN,1709211876000,53.358437,-6.260641
89,dublin,FITZWILLIAM SQUARE EAST,Fitzwilliam Square East,0,0,40,28,12,OPEN,1709211883000,53.335211,-6.2509
57,dublin,GRATTAN STREET,Grattan Street,0,0,23,12,11,OPEN,1709211729000,53.339629,-6.243778
80,dublin,ST JAMES HOSPITAL (LUAS),St James Hospital (Luas),0,0,40,27,13,OPEN,1709211926000,53.341359,-6.292951
41,dublin,HARCOURT TERRACE,Harcourt Terrace,0,0,20,20,0,OPEN,1709211681000,53.332763,-6.257942
3,dublin,BOLTON STREET,Bolton Street,0,0,20,0,20,OPEN,1709211834000,53.351182,-6.269859
40,dublin,JERVIS STREET,Jervis Street,0,0,21,4,17,OPEN,1709212120000,53.3483,-6.266651
29,dublin,ORMOND QUAY UPPER,Ormond Quay Upper,0,0,29,23,6,OPEN,1709211913000,53.346057,-6.268001
103,dublin,GRANGEGORMAN LOWER (SOUTH),Grangegorman Lower (South),0,0,40,23,17,OPEN,1709211806000,53.354663,-6.278681
28,dublin,MOUNTJOY SQUARE WEST,Mountjoy Square West,0,0,30,21,9,OPEN,1709212127000,53.356299,-6.258586
39,dublin,WILTON TERRACE,Wilton Terrace,0,0,20,17,3,OPEN,1709212019000,53.332383,-6.252717
83,dublin,EMMET ROAD,Emmet Road,0,0,40,16,24,OPEN,1709212096000,53.340714,-6.308191
92,dublin,HEUSTON BRIDGE (NORTH),Heuston Bridge (North),0,0,40,40,0,OPEN,1709211969000,53.347802,-6.292432
21,dublin,LEINSTER STREET SOUTH,Leinster Street South,0,0,30,1,29,OPEN,1709211937000,53.34218,-6.254485
88,dublin,BLACKHALL PLACE,Blackhall Place,0,0,30,20,10,OPEN,1709212022000,53.3488,-6.281637
42,dublin,SMITHFIELD NORTH,Smithfield North,0,0,30,25,5,OPEN,1709212104000,53.349562,-6.278198
30,dublin,PARNELL SQUARE NORTH,Parnell Square North,0,0,20,10,10,OPEN,1709211885000,53.3537415547453,-6.26530144781526
54,dublin,CLONMEL STREET,Clonmel Street,0,0,33,18,15,OPEN,1709211940000,53.336021,-6.26298
108,dublin,AVONDALE ROAD,Avondale Road,0,0,35,18,17,OPEN,1709211839000,53.359405,-6.276142
20,dublin,JAMES STREET EAST,James Street East,0,0,30,9,21,OPEN,1709211935000,53.336597,-6.248109
56,dublin,MOUNT STREET LOWER,Mount Street Lower,0,0,40,21,19,OPEN,1709211803000,53.33796,-6.24153
6,dublin,CHRISTCHURCH PLACE,Christchurch Place,0,0,20,20,0,OPEN,1709211903000,53.343368,-6.27012
18,dublin,GRANTHAM STREET,Grantham Street,0,0,30,30,0,OPEN,1709211849000,53.334123,-6.265436
32,dublin,PEARSE STREET,Pearse Street,0,0,30,4,26,OPEN,1709212075000,53.344304,-6.250427
52,dublin,YORK STREET EAST,York Street East,0,0,32,30,2,OPEN,1709211905000,53.338755,-6.262003
48,dublin,EXCISE WALK,Excise Walk,0,0,40,23,17,OPEN,1709211825000,53.347777,-6.244239
13,dublin,FITZWILLIAM SQUARE WEST,Fitzwilliam Square West,0,0,30,14,16,OPEN,1709211778000,53.336074,-6.252825
43,dublin,PORTOBELLO ROAD,Portobello Road,0,0,30,29,1,OPEN,1709212005000,53.330091,-6.268044
31,dublin,PARNELL STREET,Parnell Street,0,0,20,5,15,OPEN,1709211701000,53.350929,-6.265125
98,dublin,FREDERICK STREET SOUTH,Frederick Street South,0,0,40,12,28,OPEN,1709211980000,53.341515,-6.256853
14,dublin,FOWNES STREET UPPER,Fownes Street Upper,0,0,30,19,11,OPEN,1709211947000,53.344603,-6.263371
1,dublin,CLARENDON ROW,Clarendon Row,0,0,31,27,4,OPEN,1709211881000,53.340927,-6.262501
23,dublin,CUSTOM HOUSE,Custom House,0,0,30,16,14,OPEN,1709212144000,53.348279,-6.254662
106,dublin,RATHDOWN ROAD,Rathdown Road,0,0,40,22,18,OPEN,1709211780000,53.35893,-6.280337
112,dublin,NORTH CIRCULAR ROAD (O'CONNELL'S),North Circular Road (O'Connell's),0,0,30,30,0,OPEN,1709211790000,53.357841,-6.251557
68,dublin,HANOVER QUAY,Hanover Quay,0,0,40,5,35,OPEN,1709212048000,53.344115,-6.237153
74,dublin,OLIVER BOND STREET,Oliver Bond Street,0,0,30,22,8,OPEN,1709211866000,53.343893,-6.280531
87,dublin,COLLINS BARRACKS MUSEUM,Collins Barracks Museum,0,0,38,36,2,OPEN,1709211813000,53.347477,-6.28525
84,dublin,BROOKFIELD ROAD,Brookfield Road,0,0,30,29,1,OPEN,1709211894000,53.339005,-6.300217
90,dublin,BENSON STREET,Benson Street,0,0,40,2,38,OPEN,1709211987000,53.344153,-6.233451
11,dublin,EARLSFORT TERRACE,Earlsfort Terrace,0,0,30,16,14,OPEN,1709211672000,53.334295,-6.258503
17,dublin,GOLDEN LANE,Golden Lane,0,0,20,20,0,OPEN,1709211925000,53.340803,-6.267732
45,dublin,DEVERELL PLACE,Deverell Place,0,0,30,12,18,OPEN,1709211934000,53.351464,-6.255265
114,dublin,WILTON TERRACE (PARK),Wilton Terrace (Park),0,0,40,8,32,OPEN,1709211956000,53.333653,-6.248345
72,dublin,JOHN STREET WEST,John Street West,0,0,31,31,0,OPEN,1709211838000,53.343105,-6.277167
63,dublin,FENIAN STREET,Fenian Street,0,0,35,25,10,OPEN,1709211800000,53.341428,-6.24672
113,dublin,MERRION SQUARE SOUTH,Merrion Square South,0,0,40,26,14,OPEN,1709211819000,53.338614,-6.248606
91,dublin,SOUTH DOCK ROAD,South Dock Road,0,0,30,23,7,OPEN,1709211933000,53.341833,-6.231291
99,dublin,CITY QUAY,City Quay,0,0,30,13,17,OPEN,1709211843000,53.346637,-6.246154
9,dublin,EXCHEQUER STREET,Exchequer Street,0,0,24,6,18,OPEN,1709212022000,53.343034,-6.263578
67,dublin,THE POINT,The Point,0,0,40,17,23,OPEN,1709212055000,53.346867,-6.230852
116,dublin,BROADSTONE,Broadstone,0,0,30,29,1,OPEN,1709212003000,53.3547,-6.272314
55,dublin,HATCH STREET,Hatch Street,0,0,36,18,18,OPEN,1709211976000,53.33403,-6.260714
62,dublin,LIME STREET,Lime Street,0,0,40,16,24,OPEN,1709211987000,53.346026,-6.243576
5,dublin,CHARLEMONT PLACE,Charlemont Street,0,0,40,39,1,OPEN,1709212039000,53.330662,-6.260177
97,dublin,KILMAINHAM GAOL,Kilmainham Gaol,0,0,40,23,17,OPEN,1709211752000,53.342113,-6.310015
61,dublin,HARDWICKE PLACE,Hardwicke Place,0,0,25,18,7,OPEN,1709211657000,53.357043,-6.263232
77,dublin,WOLFE TONE STREET,Wolfe Tone Street,0,0,29,22,7,OPEN,1709212113000,53.348875,-6.267459
73,dublin,FRANCIS STREET,Francis Street,0,0,30,30,0,OPEN,1709211833000,53.342081,-6.275233
4,dublin,GREEK STREET,Greek Street,0,0,20,14,6,OPEN,1709211830000,53.346874,-6.272976
49,dublin,GUILD STREET,Guild Street,0,0,40,8,32,OPEN,1709212010000,53.347932,-6.240928
19,dublin,HERBERT PLACE,Herbert Place,0,0,30,10,20,OPEN,1709212022000,53.334432,-6.245575
7,dublin,HIGH STREET,High Street,0,0,29,29,0,OPEN,1709211762000,53.343565,-6.275071
60,dublin,NORTH CIRCULAR ROAD,North Circular Road,0,0,30,14,16,OPEN,1709212001000,53.359624,-6.260348
102,dublin,WESTERN WAY,Western Way,0,0,40,33,7,OPEN,1709211962000,53.354929,-6.269425
38,dublin,TALBOT STREET,Talbot Street,0,0,40,3,37,OPEN,1709211968000,53.350974,-6.25294
53,dublin,NEWMAN HOUSE,Newman House,0,0,40,30,10,OPEN,1709211780000,53.337132,-6.26059
58,dublin,SIR PATRICK DUN'S,Sir Patrick's Dun,0,0,40,1,39,OPEN,1709212052000,53.339218,-6.240642
66,dublin,NEW CENTRAL BANK,New Central Bank,0,0,40,17,23,OPEN,1709212054000,53.347122,-6.234749
104,dublin,GRANGEGORMAN LOWER (CENTRAL),Grangegorman Lower (Central),0,0,40,28,12,OPEN,1709212099000,53.355173,-6.278424
101,dublin,KING STREET NORTH,King Street North,0,0,30,27,3,OPEN,1709211696000,53.350291,-6.273507
115,dublin,KILLARNEY STREET,Killarney Street,0,0,30,26,4,OPEN,1709212129000,53.354845,-6.247579
47,dublin,HERBERT STREET,Herbert Street,0,0,40,19,21,OPEN,1709211712000,53.335742,-6.24551
117,dublin,HANOVER QUAY EAST,Hanover Quay East,0,0,40,26,14,OPEN,1709211714000,53.343653,-6.231755
8,dublin,CUSTOM HOUSE QUAY,Custom House Quay,0,0,30,13,17,OPEN,1709212116000,53.347884,-6.248048
27,dublin,MOLESWORTH STREET,Molesworth Street,0,0,20,5,15,OPEN,1709212136000,53.341288,-6.258117
16,dublin,GEORGES QUAY,Georges Quay,0,0,20,15,5,OPEN,1709211801000,53.347508,-6.252192
96,dublin,KILMAINHAM LANE,Kilmainham Lane,0,0,30,18,12,OPEN,1709211642000,53.341805,-6.305085
82,dublin,MOUNT BROWN,Mount Brown,0,0,22,19,3,OPEN,1709211860000,53.341645,-6.29719
76,dublin,MARKET STREET SOUTH,Market Street South,0,0,38,37,1,OPEN,1709211664000,53.342296,-6.287661
71,dublin,KEVIN STREET,Kevin Street,0,0,40,38,2,OPEN,1709212080000,53.337757,-6.267699
79,dublin,ECCLES STREET EAST,Eccles Street East,0,0,27,26,1,OPEN,1709211819000,53.358115,-6.265601
69,dublin,GRAND CANAL DOCK,Grand Canal Dock,0,0,40,17,23,OPEN,1709212107000,53.342638,-6.238695
25,dublin,MERRION SQUARE EAST,Merrion Square East,0,0,30,8,22,OPEN,1709212013000,53.339434,-6.246548
51,dublin,YORK STREET WEST,York Street West,0,0,40,32,8,OPEN,1709211653000,53.339334,-6.264699
37,dublin,ST. STEPHEN'S GREEN SOUTH,St. Stephen's Green South,1,0,30,28,2,OPEN,1709211779000,53.337494,-6.26199
59,dublin,DENMARK STREET GREAT,Denmark Street Great,0,0,20,19,1,OPEN,1709211828000,53.35561,-6.261397
95,dublin,ROYAL HOSPITAL,Royal Hospital,0,0,40,27,13,OPEN,1709212094000,53.343897,-6.29706
94,dublin,HEUSTON STATION (CAR PARK),Heuston Station (Car Park),0,0,40,40,0,OPEN,1709211832000,53.346985,-6.297804
105,dublin,GRANGEGORMAN LOWER (NORTH),Grangegorman Lower (North),0,0,36,19,17,OPEN,1709211919000,53.355954,-6.278378
36,dublin,ST. STEPHEN'S GREEN EAST,St. Stephen's Green East,0,0,40,15,25,OPEN,1709211719000,53.337824,-6.256035
93,dublin,HEUSTON STATION (CENTRAL),Heuston Station (Central),0,0,40,40,0,OPEN,1709211783000,53.346603,-6.296924
22,dublin,TOWNSEND STREET,Townsend Street,0,0,20,15,5,OPEN,1709212085000,53.345922,-6.254614
50,dublin,GEORGES LANE,George's Lane,0,0,40,35,5,OPEN,1709211959000,53.35023,-6.279696
110,dublin,PHIBSBOROUGH ROAD,Phibsborough Road,0,0,40,40,0,OPEN,1709211907000,53.356307,-6.273717
12,dublin,ECCLES STREET,Eccles Street,0,0,20,18,2,OPEN,1709212129000,53.359246,-6.269779
34,dublin,PORTOBELLO HARBOUR,Portobello Harbour,0,0,30,30,0,OPEN,1709211911000,53.330362,-6.265163
78,dublin,MATER HOSPITAL,Mater Hospital,0,0,40,13,27,OPEN,1709211811000,53.359967,-6.264828
2,dublin,BLESSINGTON STREET,Blessington Street,0,0,20,18,2,OPEN,1709211988000,53.356769,-6.26814
75,dublin,JAMES STREET,James Street,0,0,40,25,15,OPEN,1709211962000,53.343456,-6.287409
111,dublin,MOUNTJOY SQUARE EAST,Mountjoy Square East,0,0,40,39,1,OPEN,1709211696000,53.356717,-6.256359
26,dublin,MERRION SQUARE WEST,Merrion Square West,1,0,20,5,15,OPEN,1709212100000,53.339764,-6.251988
65,dublin,CONVENTION CENTRE,Convention Centre,1,0,40,19,21,OPEN,1709211980000,53.34744,-6.238523
15,dublin,HARDWICKE STREET,Hardwicke Street,0,0,16,15,1,OPEN,1709211929000,53.355473,-6.264423
86,dublin,PARKGATE STREET,Parkgate Street,0,0,38,38,0,OPEN,1709211743000,53.347972,-6.291804
35,dublin,SMITHFIELD,Smithfield,0,0,30,27,3,OPEN,1709212062000,53.347692,-6.278214
10,dublin,DAME STREET,Dame Street,1,0,16,8,7,OPEN,1709212014000,53.344007,-6.266802
100,dublin,HEUSTON BRIDGE (SOUTH),Heuston Bridge (South),0,0,25,23,2,OPEN,1709212140000,53.347106,-6.292041
24,dublin,CATHAL BRUGHA STREET,Cathal Brugha Street,0,0,20,20,0,OPEN,1709211864000,53.352149,-6.260533
64,dublin,SANDWITH STREET,Sandwith Street,0,0,40,16,24,OPEN,1709211940000,53.345203,-6.247163
109,dublin,BUCKINGHAM STREET LOWER,Buckingham Street Lower,0,0,29,6,23,OPEN,1709212054000,53.353331,-6.249319
85,dublin,ROTHE ABBEY,Rothe Abbey,0,0,35,18,17,OPEN,1709212048000,53.338776,-6.30395
107,dublin,CHARLEVILLE ROAD,Charleville Road,0,0,40,26,14,OPEN,1709211755000,53.359157,-6.281866
33,dublin,PRINCES STREET / O'CONNELL STREET,Princes Street / O'Connell Street,1,0,23,16,7,OPEN,1709212001000,53.349013,-6.260311
44,dublin,UPPER SHERRARD STREET,Upper Sherrard Street,0,0,30,30,0,OPEN,1709211876000,53.358437,-6.260641
89,dublin,FITZWILLIAM SQUARE EAST,Fitzwilliam Square East,0,0,40,28,12,OPEN,1709211883000,53.335211,-6.2509
57,dublin,GRATTAN STREET,Grattan Street,0,0,23,12,11,OPEN,1709211729000,53.339629,-6.243778
80,dublin,ST JAMES HOSPITAL (LUAS),St James Hospital (Luas),0,0,40,27,13,OPEN,1709211926000,53.341359,-6.292951
41,dublin,HARCOURT TERRACE,Harcourt Terrace,0,0,20,20,0,OPEN,1709211681000,53.332763,-6.257942
3,dublin,BOLTON STREET,Bolton Street,0,0,20,0,20,OPEN,1709211834000,53.351182,-6.269859
40,dublin,JERVIS STREET,Jervis Street,0,0,21,4,17,OPEN,1709212120000,53.3483,-6.266651
29,dublin,ORMOND QUAY UPPER,Ormond Quay Upper,0,0,29,23,6,OPEN,1709211913000,53.346057,-6.268001
103,dublin,GRANGEGORMAN LOWER (SOUTH),Grangegorman Lower (South),0,0,40,23,17,OPEN,1709211806000,53.354663,-6.278681
28,dublin,MOUNTJOY SQUARE WEST,Mountjoy Square West,0,0,30,21,9,OPEN,1709212127000,53.356299,-6.258586
39,dublin,WILTON TERRACE,Wilton Terrace,0,0,20,17,3,OPEN,1709212019000,53.332383,-6.252717
83,dublin,EMMET ROAD,Emmet Road,0,0,40,16,24,OPEN,1709212096000,53.340714,-6.308191
92,dublin,HEUSTON BRIDGE (NORTH),Heuston Bridge (North),0,0,40,40,0,OPEN,1709211969000,53.347802,-6.292432
21,dublin,LEINSTER STREET SOUTH,Leinster Street South,0,0,30,1,29,OPEN,1709211937000,53.34218,-6.254485
88,dublin,BLACKHALL PLACE,Blackhall Place,0,0,30,20,10,OPEN,1709212022000,53.3488,-6.281637
42,dublin,SMITHFIELD NORTH,Smithfield North,0,0,30,25,5,OPEN,1709212104000,53.349562,-6.278198
30,dublin,PARNELL SQUARE NORTH,Parnell Square North,0,0,20,9,11,OPEN,1709212182000,53.3537415547453,-6.26530144781526
54,dublin,CLONMEL STREET,Clonmel Street,0,0,33,18,15,OPEN,1709211940000,53.336021,-6.26298
108,dublin,AVONDALE ROAD,Avondale Road,0,0,35,18,17,OPEN,1709211839000,53.359405,-6.276142
20,dublin,JAMES STREET EAST,James Street East,0,0,30,9,21,OPEN,1709211935000,53.336597,-6.248109
56,dublin,MOUNT STREET LOWER,Mount Street Lower,0,0,40,21,19,OPEN,1709211803000,53.33796,-6.24153
6,dublin,CHRISTCHURCH PLACE,Christchurch Place,0,0,20,20,0,OPEN,1709211903000,53.343368,-6.27012
18,dublin,GRANTHAM STREET,Grantham Street,0,0,30,30,0,OPEN,1709211849000,53.334123,-6.265436
32,dublin,PEARSE STREET,Pearse Street,0,0,30,4,26,OPEN,1709212075000,53.344304,-6.250427
52,dublin,YORK STREET EAST,York Street East,0,0,32,30,2,OPEN,1709211905000,53.338755,-6.262003
48,dublin,EXCISE WALK,Excise Walk,0,0,40,24,16,OPEN,1709212183000,53.347777,-6.244239
13,dublin,FITZWILLIAM SQUARE WEST,Fitzwilliam Square West,0,0,30,14,16,OPEN,1709211778000,53.336074,-6.252825
43,dublin,PORTOBELLO ROAD,Portobello Road,0,0,30,29,1,OPEN,1709212005000,53.330091,-6.268044
31,dublin,PARNELL STREET,Parnell Street,0,0,20,4,16,OPEN,1709212147000,53.350929,-6.265125
98,dublin,FREDERICK STREET SOUTH,Frederick Street South,0,0,40,12,28,OPEN,1709211980000,53.341515,-6.256853
14,dublin,FOWNES STREET UPPER,Fownes Street Upper,0,0,30,18,12,OPEN,1709212202000,53.344603,-6.263371
1,dublin,CLARENDON ROW,Clarendon Row,0,0,31,27,4,OPEN,1709211881000,53.340927,-6.262501
23,dublin,CUSTOM HOUSE,Custom House,0,0,30,17,13,OPEN,1709212158000,53.348279,-6.254662
106,dublin,RATHDOWN ROAD,Rathdown Road,0,0,40,22,18,OPEN,1709211780000,53.35893,-6.280337
112,dublin,NORTH CIRCULAR ROAD (O'CONNELL'S),North Circular Road (O'Connell's),0,0,30,30,0,OPEN,1709211790000,53.357841,-6.251557
68,dublin,HANOVER QUAY,Hanover Quay,0,0,40,5,35,OPEN,1709212048000,53.344115,-6.237153
74,dublin,OLIVER BOND STREET,Oliver Bond Street,0,0,30,22,8,OPEN,1709211866000,53.343893,-6.280531
87,dublin,COLLINS BARRACKS MUSEUM,Collins Barracks Museum,0,0,38,36,2,OPEN,1709211813000,53.347477,-6.28525
84,dublin,BROOKFIELD ROAD,Brookfield Road,0,0,30,29,1,OPEN,1709211894000,53.339005,-6.300217
90,dublin,BENSON STREET,Benson Street,0,0,40,2,38,OPEN,1709211987000,53.344153,-6.233451
11,dublin,EARLSFORT TERRACE,Earlsfort Terrace,0,0,30,16,14,OPEN,1709211672000,53.334295,-6.258503
17,dublin,GOLDEN LANE,Golden Lane,0,0,20,20,0,OPEN,1709211925000,53.340803,-6.267732
45,dublin,DEVERELL PLACE,Deverell Place,0,0,30,12,18,OPEN,1709211934000,53.351464,-6.255265
114,dublin,WILTON TERRACE (PARK),Wilton Terrace (Park),0,0,40,8,32,OPEN,1709211956000,53.333653,-6.248345
72,dublin,JOHN STREET WEST,John Street West,0,0,31,31,0,OPEN,1709211838000,53.343105,-6.277167
63,dublin,FENIAN STREET,Fenian Street,0,0,35,25,10,OPEN,1709211800000,53.341428,-6.24672
113,dublin,MERRION SQUARE SOUTH,Merrion Square South,0,0,40,26,14,OPEN,1709211819000,53.338614,-6.248606
91,dublin,SOUTH DOCK ROAD,South Dock Road,0,0,30,23,7,OPEN,1709211933000,53.341833,-6.231291
99,dublin,CITY QUAY,City Quay,0,0,30,13,17,OPEN,1709211843000,53.346637,-6.246154
9,dublin,EXCHEQUER STREET,Exchequer Street,0,0,24,6,18,OPEN,1709212022000,53.343034,-6.263578
67,dublin,THE POINT,The Point,0,0,40,17,23,OPEN,1709212055000,53.346867,-6.230852
116,dublin,BROADSTONE,Broadstone,0,0,30,29,1,OPEN,1709212003000,53.3547,-6.272314
55,dublin,HATCH STREET,Hatch Street,0,0,36,18,18,OPEN,1709211976000,53.33403,-6.260714
62,dublin,LIME STREET,Lime Street,0,0,40,16,24,OPEN,1709211987000,53.346026,-6.243576
5,dublin,CHARLEMONT PLACE,Charlemont Street,0,0,40,39,1,OPEN,1709212039000,53.330662,-6.260177
97,dublin,KILMAINHAM GAOL,Kilmainham Gaol,0,0,40,23,17,OPEN,1709211752000,53.342113,-6.310015
61,dublin,HARDWICKE PLACE,Hardwicke Place,0,0,25,18,7,OPEN,1709211657000,53.357043,-6.263232
77,dublin,WOLFE TONE STREET,Wolfe Tone Street,0,0,29,22,7,OPEN,1709212113000,53.348875,-6.267459
73,dublin,FRANCIS STREET,Francis Street,0,0,30,30,0,OPEN,1709211833000,53.342081,-6.275233
4,dublin,GREEK STREET,Greek Street,0,0,20,14,6,OPEN,1709211830000,53.346874,-6.272976
49,dublin,GUILD STREET,Guild Street,0,0,40,8,32,OPEN,1709212010000,53.347932,-6.240928
19,dublin,HERBERT PLACE,Herbert Place,0,0,30,10,20,OPEN,1709212022000,53.334432,-6.245575
7,dublin,HIGH STREET,High Street,0,0,29,29,0,OPEN,1709211762000,53.343565,-6.275071
60,dublin,NORTH CIRCULAR ROAD,North Circular Road,0,0,30,14,16,OPEN,1709212001000,53.359624,-6.260348
102,dublin,WESTERN WAY,Western Way,0,0,40,34,6,OPEN,1709212198000,53.354929,-6.269425
38,dublin,TALBOT STREET,Talbot Street,0,0,40,3,37,OPEN,1709212182000,53.350974,-6.25294
53,dublin,NEWMAN HOUSE,Newman House,0,0,40,30,10,OPEN,1709211780000,53.337132,-6.26059
58,dublin,SIR PATRICK DUN'S,Sir Patrick's Dun,0,0,40,1,39,OPEN,1709212052000,53.339218,-6.240642
66,dublin,NEW CENTRAL BANK,New Central Bank,0,0,40,17,23,OPEN,1709212189000,53.347122,-6.234749
104,dublin,GRANGEGORMAN LOWER (CENTRAL),Grangegorman Lower (Central),0,0,40,28,12,OPEN,1709212099000,53.355173,-6.278424
101,dublin,KING STREET NORTH,King Street North,0,0,30,27,3,OPEN,1709211696000,53.350291,-6.273507
115,dublin,KILLARNEY STREET,Killarney Street,0,0,30,26,4,OPEN,1709212129000,53.354845,-6.247579
47,dublin,HERBERT STREET,Herbert Street,0,0,40,19,21,OPEN,1709211712000,53.335742,-6.24551
117,dublin,HANOVER QUAY EAST,Hanover Quay East,0,0,40,26,14,OPEN,1709211714000,53.343653,-6.231755
8,dublin,CUSTOM HOUSE QUAY,Custom House Quay,0,0,30,13,17,OPEN,1709212116000,53.347884,-6.248048
27,dublin,MOLESWORTH STREET,Molesworth Street,0,0,20,5,15,OPEN,1709212136000,53.341288,-6.258117
16,dublin,GEORGES QUAY,Georges Quay,0,0,20,15,5,OPEN,1709211801000,53.347508,-6.252192
96,dublin,KILMAINHAM LANE,Kilmainham Lane,0,0,30,18,12,OPEN,1709211642000,53.341805,-6.305085
82,dublin,MOUNT BROWN,Mount Brown,0,0,22,19,3,OPEN,1709211860000,53.341645,-6.29719
76,dublin,MARKET STREET SOUTH,Market Street South,0,0,38,37,1,OPEN,1709211664000,53.342296,-6.287661
71,dublin,KEVIN STREET,Kevin Street,0,0,40,38,2,OPEN,1709212080000,53.337757,-6.267699
79,dublin,ECCLES STREET EAST,Eccles Street East,0,0,27,26,1,OPEN,1709211819000,53.358115,-6.265601
69,dublin,GRAND CANAL DOCK,Grand Canal Dock,0,0,40,17,23,OPEN,1709212107000,53.342638,-6.238695
25,dublin,MERRION SQUARE EAST,Merrion Square East,0,0,30,8,22,OPEN,1709212013000,53.339434,-6.246548
51,dublin,YORK STREET WEST,York Street West,0,0,40,32,8,OPEN,1709211653000,53.339334,-6.264699
37,dublin,ST. STEPHEN'S GREEN SOUTH,St. Stephen's Green South,1,0,30,28,2,OPEN,1709211779000,53.337494,-6.26199
59,dublin,DENMARK STREET GREAT,Denmark Street Great,0,0,20,19,1,OPEN,1709211828000,53.35561,-6.261397
95,dublin,ROYAL HOSPITAL,Royal Hospital,0,0,40,27,13,OPEN,1709212094000,53.343897,-6.29706
94,dublin,HEUSTON STATION (CAR PARK),Heuston Station (Car Park),0,0,40,40,0,OPEN,1709211832000,53.346985,-6.297804
105,dublin,GRANGEGORMAN LOWER (NORTH),Grangegorman Lower (North),0,0,36,19,17,OPEN,1709211919000,53.355954,-6.278378
36,dublin,ST. STEPHEN'S GREEN EAST,St. Stephen's Green East,0,0,40,15,25,OPEN,1709211719000,53.337824,-6.256035
93,dublin,HEUSTON STATION (CENTRAL),Heuston Station (Central),0,0,40,40,0,OPEN,1709211783000,53.346603,-6.296924
22,dublin,TOWNSEND STREET,Townsend Street,0,0,20,14,6,OPEN,1709212148000,53.345922,-6.254614
50,dublin,GEORGES LANE,George's Lane,0,0,40,35,5,OPEN,1709211959000,53.35023,-6.279696
110,dublin,PHIBSBOROUGH ROAD,Phibsborough Road,0,0,40,40,0,OPEN,1709211907000,53.356307,-6.273717
12,dublin,ECCLES STREET,Eccles Street,0,0,20,18,2,OPEN,1709212129000,53.359246,-6.269779
34,dublin,PORTOBELLO HARBOUR,Portobello Harbour,0,0,30,30,0,OPEN,1709211911000,53.330362,-6.265163
78,dublin,MATER HOSPITAL,Mater Hospital,0,0,40,13,27,OPEN,1709211811000,53.359967,-6.264828
2,dublin,BLESSINGTON STREET,Blessington Street,0,0,20,18,2,OPEN,1709211988000,53.356769,-6.26814
75,dublin,JAMES STREET,James Street,0,0,40,25,15,OPEN,1709211962000,53.343456,-6.287409
111,dublin,MOUNTJOY SQUARE EAST,Mountjoy Square East,0,0,40,39,1,OPEN,1709211696000,53.356717,-6.256359
26,dublin,MERRION SQUARE WEST,Merrion Square West,1,0,20,7,13,OPEN,1709212179000,53.339764,-6.251988
65,dublin,CONVENTION CENTRE,Convention Centre,1,0,40,19,21,OPEN,1709211980000,53.34744,-6.238523
15,dublin,HARDWICKE STREET,Hardwicke Street,0,0,16,15,1,OPEN,1709211929000,53.355473,-6.264423
86,dublin,PARKGATE STREET,Parkgate Street,0,0,38,38,0,OPEN,1709211743000,53.347972,-6.291804
35,dublin,SMITHFIELD,Smithfield,0,0,30,27,3,OPEN,1709212062000,53.347692,-6.278214
10,dublin,DAME STREET,Dame Street,1,0,16,8,7,OPEN,1709212014000,53.344007,-6.266802
100,dublin,HEUSTON BRIDGE (SOUTH),Heuston Bridge (South),0,0,25,23,2,OPEN,1709212140000,53.347106,-6.292041
24,dublin,CATHAL BRUGHA STREET,Cathal Brugha Street,0,0,20,20,0,OPEN,1709211864000,53.352149,-6.260533
64,dublin,SANDWITH STREET,Sandwith Street,0,0,40,16,24,OPEN,1709211940000,53.345203,-6.247163
109,dublin,BUCKINGHAM STREET LOWER,Buckingham Street Lower,0,0,29,6,23,OPEN,1709212054000,53.353331,-6.249319
85,dublin,ROTHE ABBEY,Rothe Abbey,0,0,35,18,17,OPEN,1709212048000,53.338776,-6.30395
107,dublin,CHARLEVILLE ROAD,Charleville Road,0,0,40,26,14,OPEN,1709211755000,53.359157,-6.281866
33,dublin,PRINCES STREET / O'CONNELL STREET,Princes Street / O'Connell Street,1,0,23,16,7,OPEN,1709212001000,53.349013,-6.260311
44,dublin,UPPER SHERRARD STREET,Upper Sherrard Street,0,0,30,30,0,OPEN,1709211876000,53.358437,-6.260641
89,dublin,FITZWILLIAM SQUARE EAST,Fitzwilliam Square East,0,0,40,28,12,OPEN,1709211883000,53.335211,-6.2509
57,dublin,GRATTAN STREET,Grattan Street,0,0,23,12,11,OPEN,1709211729000,53.339629,-6.243778
80,dublin,ST JAMES HOSPITAL (LUAS),St James Hospital (Luas),0,0,40,27,13,OPEN,1709211926000,53.341359,-6.292951
41,dublin,HARCOURT TERRACE,Harcourt Terrace,0,0,20,20,0,OPEN,1709211681000,53.332763,-6.257942
3,dublin,BOLTON STREET,Bolton Street,0,0,20,1,19,OPEN,1709212200000,53.351182,-6.269859
40,dublin,JERVIS STREET,Jervis Street,0,0,21,4,17,OPEN,1709212120000,53.3483,-6.266651
29,dublin,ORMOND QUAY UPPER,Ormond Quay Upper,0,0,29,23,6,OPEN,1709211913000,53.346057,-6.268001
103,dublin,GRANGEGORMAN LOWER (SOUTH),Grangegorman Lower (South),0,0,40,23,17,OPEN,1709211806000,53.354663,-6.278681
28,dublin,MOUNTJOY SQUARE WEST,Mountjoy Square West,0,0,30,21,9,OPEN,1709212127000,53.356299,-6.258586
39,dublin,WILTON TERRACE,Wilton Terrace,0,0,20,18,2,OPEN,1709212182000,53.332383,-6.252717
83,dublin,EMMET ROAD,Emmet Road,0,0,40,16,24,OPEN,1709212096000,53.340714,-6.308191
92,dublin,HEUSTON BRIDGE (NORTH),Heuston Bridge (North),0,0,40,40,0,OPEN,1709211969000,53.347802,-6.292432
21,dublin,LEINSTER STREET SOUTH,Leinster Street South,0,0,30,1,29,OPEN,1709211937000,53.34218,-6.254485
88,dublin,BLACKHALL PLACE,Blackhall Place,0,0,30,20,10,OPEN,1709212022000,53.3488,-6.281637
42,dublin,SMITHFIELD NORTH,Smithfield North,0,0,30,25,5,OPEN,1709212104000,53.349562,-6.278198
30,dublin,PARNELL SQUARE NORTH,Parnell Square North,0,0,20,9,11,OPEN,1709212182000,53.3537415547453,-6.26530144781526
54,dublin,CLONMEL STREET,Clonmel Street,0,0,33,18,15,OPEN,1709211940000,53.336021,-6.26298
108,dublin,AVONDALE ROAD,Avondale Road,0,0,35,18,17,OPEN,1709211839000,53.359405,-6.276142
20,dublin,JAMES STREET EAST,James Street East,0,0,30,9,21,OPEN,1709211935000,53.336597,-6.248109
56,dublin,MOUNT STREET LOWER,Mount Street Lower,0,0,40,21,19,OPEN,1709211803000,53.33796,-6.24153
6,dublin,CHRISTCHURCH PLACE,Christchurch Place,0,0,20,20,0,OPEN,1709211903000,53.343368,-6.27012
18,dublin,GRANTHAM STREET,Grantham Street,0,0,30,30,0,OPEN,1709211849000,53.334123,-6.265436
32,dublin,PEARSE STREET,Pearse Street,0,0,30,4,26,OPEN,1709212075000,53.344304,-6.250427
52,dublin,YORK STREET EAST,York Street East,0,0,32,30,2,OPEN,1709211905000,53.338755,-6.262003
48,dublin,EXCISE WALK,Excise Walk,0,0,40,24,16,OPEN,1709212183000,53.347777,-6.244239
13,dublin,FITZWILLIAM SQUARE WEST,Fitzwilliam Square West,0,0,30,14,16,OPEN,1709211778000,53.336074,-6.252825
43,dublin,PORTOBELLO ROAD,Portobello Road,0,0,30,29,1,OPEN,1709212005000,53.330091,-6.268044
31,dublin,PARNELL STREET,Parnell Street,0,0,20,4,16,OPEN,1709212147000,53.350929,-6.265125
98,dublin,FREDERICK STREET SOUTH,Frederick Street South,0,0,40,12,28,OPEN,1709211980000,53.341515,-6.256853
14,dublin,FOWNES STREET UPPER,Fownes Street Upper,0,0,30,18,12,OPEN,1709212202000,53.344603,-6.263371
1,dublin,CLARENDON ROW,Clarendon Row,0,0,31,27,4,OPEN,1709211881000,53.340927,-6.262501
23,dublin,CUSTOM HOUSE,Custom House,0,0,30,17,13,OPEN,1709212158000,53.348279,-6.254662
106,dublin,RATHDOWN ROAD,Rathdown Road,0,0,40,22,18,OPEN,1709211780000,53.35893,-6.280337
112,dublin,NORTH CIRCULAR ROAD (O'CONNELL'S),North Circular Road (O'Connell's),0,0,30,30,0,OPEN,1709211790000,53.357841,-6.251557
68,dublin,HANOVER QUAY,Hanover Quay,0,0,40,5,35,OPEN,1709212048000,53.344115,-6.237153
74,dublin,OLIVER BOND STREET,Oliver Bond Street,0,0,30,22,8,OPEN,1709211866000,53.343893,-6.280531
87,dublin,COLLINS BARRACKS MUSEUM,Collins Barracks Museum,0,0,38,36,2,OPEN,1709211813000,53.347477,-6.28525
84,dublin,BROOKFIELD ROAD,Brookfield Road,0,0,30,29,1,OPEN,1709211894000,53.339005,-6.300217
90,dublin,BENSON STREET,Benson Street,0,0,40,2,38,OPEN,1709211987000,53.344153,-6.233451
11,dublin,EARLSFORT TERRACE,Earlsfort Terrace,0,0,30,16,14,OPEN,1709211672000,53.334295,-6.258503
17,dublin,GOLDEN LANE,Golden Lane,0,0,20,20,0,OPEN,1709211925000,53.340803,-6.267732
45,dublin,DEVERELL PLACE,Deverell Place,0,0,30,12,18,OPEN,1709211934000,53.351464,-6.255265
114,dublin,WILTON TERRACE (PARK),Wilton Terrace (Park),0,0,40,8,32,OPEN,1709211956000,53.333653,-6.248345
72,dublin,JOHN STREET WEST,John Street West,0,0,31,31,0,OPEN,1709211838000,53.343105,-6.277167
63,dublin,FENIAN STREET,Fenian Street,0,0,35,25,10,OPEN,1709211800000,53.341428,-6.24672
113,dublin,MERRION SQUARE SOUTH,Merrion Square South,0,0,40,26,14,OPEN,1709211819000,53.338614,-6.248606
91,dublin,SOUTH DOCK ROAD,South Dock Road,0,0,30,23,7,OPEN,1709211933000,53.341833,-6.231291
99,dublin,CITY QUAY,City Quay,0,0,30,13,17,OPEN,1709211843000,53.346637,-6.246154
9,dublin,EXCHEQUER STREET,Exchequer Street,0,0,24,6,18,OPEN,1709212022000,53.343034,-6.263578
67,dublin,THE POINT,The Point,0,0,40,17,23,OPEN,1709212055000,53.346867,-6.230852
116,dublin,BROADSTONE,Broadstone,0,0,30,29,1,OPEN,1709212003000,53.3547,-6.272314
55,dublin,HATCH STREET,Hatch Street,0,0,36,18,18,OPEN,1709211976000,53.33403,-6.260714
62,dublin,LIME STREET,Lime Street,0,0,40,16,24,OPEN,1709211987000,53.346026,-6.243576
5,dublin,CHARLEMONT PLACE,Charlemont Street,0,0,40,39,1,OPEN,1709212039000,53.330662,-6.260177
97,dublin,KILMAINHAM GAOL,Kilmainham Gaol,0,0,40,23,17,OPEN,1709211752000,53.342113,-6.310015
61,dublin,HARDWICKE PLACE,Hardwicke Place,0,0,25,18,7,OPEN,1709211657000,53.357043,-6.263232
77,dublin,WOLFE TONE STREET,Wolfe Tone Street,0,0,29,22,7,OPEN,1709212113000,53.348875,-6.267459
73,dublin,FRANCIS STREET,Francis Street,0,0,30,30,0,OPEN,1709211833000,53.342081,-6.275233
4,dublin,GREEK STREET,Greek Street,0,0,20,14,6,OPEN,1709211830000,53.346874,-6.272976
49,dublin,GUILD STREET,Guild Street,0,0,40,8,32,OPEN,1709212010000,53.347932,-6.240928
19,dublin,HERBERT PLACE,Herbert Place,0,0,30,10,20,OPEN,1709212022000,53.334432,-6.245575
7,dublin,HIGH STREET,High Street,0,0,29,29,0,OPEN,1709211762000,53.343565,-6.275071
60,dublin,NORTH CIRCULAR ROAD,North Circular Road,0,0,30,14,16,OPEN,1709212001000,53.359624,-6.260348
102,dublin,WESTERN WAY,Western Way,0,0,40,34,6,OPEN,1709212198000,53.354929,-6.269425
38,dublin,TALBOT STREET,Talbot Street,0,0,40,3,37,OPEN,1709212182000,53.350974,-6.25294
53,dublin,NEWMAN HOUSE,Newman House,0,0,40,30,10,OPEN,1709211780000,53.337132,-6.26059
58,dublin,SIR PATRICK DUN'S,Sir Patrick's Dun,0,0,40,1,39,OPEN,1709212052000,53.339218,-6.240642
66,dublin,NEW CENTRAL BANK,New Central Bank,0,0,40,17,23,OPEN,1709212189000,53.347122,-6.234749
104,dublin,GRANGEGORMAN LOWER (CENTRAL),Grangegorman Lower (Central),0,0,40,28,12,OPEN,1709212099000,53.355173,-6.278424
101,dublin,KING STREET NORTH,King Street North,0,0,30,27,3,OPEN,1709211696000,53.350291,-6.273507
115,dublin,KILLARNEY STREET,Killarney Street,0,0,30,26,4,OPEN,1709212129000,53.354845,-6.247579
47,dublin,HERBERT STREET,Herbert Street,0,0,40,19,21,OPEN,1709211712000,53.335742,-6.24551
117,dublin,HANOVER QUAY EAST,Hanover Quay East,0,0,40,26,14,OPEN,1709211714000,53.343653,-6.231755
8,dublin,CUSTOM HOUSE QUAY,Custom House Quay,0,0,30,13,17,OPEN,1709212116000,53.347884,-6.248048
27,dublin,MOLESWORTH STREET,Molesworth Street,0,0,20,5,15,OPEN,1709212136000,53.341288,-6.258117
16,dublin,GEORGES QUAY,Georges Quay,0,0,20,15,5,OPEN,1709211801000,53.347508,-6.252192
96,dublin,KILMAINHAM LANE,Kilmainham Lane,0,0,30,18,12,OPEN,1709211642000,53.341805,-6.305085
82,dublin,MOUNT BROWN,Mount Brown,0,0,22,19,3,OPEN,1709211860000,53.341645,-6.29719
76,dublin,MARKET STREET SOUTH,Market Street South,0,0,38,37,1,OPEN,1709211664000,53.342296,-6.287661
71,dublin,KEVIN STREET,Kevin Street,0,0,40,38,2,OPEN,1709212080000,53.337757,-6.267699
79,dublin,ECCLES STREET EAST,Eccles Street East,0,0,27,26,1,OPEN,1709211819000,53.358115,-6.265601
69,dublin,GRAND CANAL DOCK,Grand Canal Dock,0,0,40,17,23,OPEN,1709212107000,53.342638,-6.238695
25,dublin,MERRION SQUARE EAST,Merrion Square East,0,0,30,8,22,OPEN,1709212013000,53.339434,-6.246548
51,dublin,YORK STREET WEST,York Street West,0,0,40,32,8,OPEN,1709211653000,53.339334,-6.264699
37,dublin,ST. STEPHEN'S GREEN SOUTH,St. Stephen's Green South,1,0,30,28,2,OPEN,1709211779000,53.337494,-6.26199
59,dublin,DENMARK STREET GREAT,Denmark Street Great,0,0,20,19,1,OPEN,1709211828000,53.35561,-6.261397
95,dublin,ROYAL HOSPITAL,Royal Hospital,0,0,40,27,13,OPEN,1709212094000,53.343897,-6.29706
94,dublin,HEUSTON STATION (CAR PARK),Heuston Station (Car Park),0,0,40,40,0,OPEN,1709211832000,53.346985,-6.297804
105,dublin,GRANGEGORMAN LOWER (NORTH),Grangegorman Lower (North),0,0,36,19,17,OPEN,1709211919000,53.355954,-6.278378
36,dublin,ST. STEPHEN'S GREEN EAST,St. Stephen's Green East,0,0,40,15,25,OPEN,1709211719000,53.337824,-6.256035
93,dublin,HEUSTON STATION (CENTRAL),Heuston Station (Central),0,0,40,40,0,OPEN,1709211783000,53.346603,-6.296924
22,dublin,TOWNSEND STREET,Townsend Street,0,0,20,14,6,OPEN,1709212148000,53.345922,-6.254614
50,dublin,GEORGES LANE,George's Lane,0,0,40,35,5,OPEN,1709211959000,53.35023,-6.279696
110,dublin,PHIBSBOROUGH ROAD,Phibsborough Road,0,0,40,40,0,OPEN,1709211907000,53.356307,-6.273717
12,dublin,ECCLES STREET,Eccles Street,0,0,20,18,2,OPEN,1709212129000,53.359246,-6.269779
34,dublin,PORTOBELLO HARBOUR,Portobello Harbour,0,0,30,30,0,OPEN,1709211911000,53.330362,-6.265163
78,dublin,MATER HOSPITAL,Mater Hospital,0,0,40,13,27,OPEN,1709211811000,53.359967,-6.264828
2,dublin,BLESSINGTON STREET,Blessington Street,0,0,20,18,2,OPEN,1709211988000,53.356769,-6.26814
75,dublin,JAMES STREET,James Street,0,0,40,25,15,OPEN,1709211962000,53.343456,-6.287409
111,dublin,MOUNTJOY SQUARE EAST,Mountjoy Square East,0,0,40,39,1,OPEN,1709211696000,53.356717,-6.256359
26,dublin,MERRION SQUARE WEST,Merrion Square West,1,0,20,7,13,OPEN,1709212179000,53.339764,-6.251988
65,dublin,CONVENTION CENTRE,Convention Centre,1,0,40,19,21,OPEN,1709211980000,53.34744,-6.238523
15,dublin,HARDWICKE STREET,Hardwicke Street,0,0,16,15,1,OPEN,1709211929000,53.355473,-6.264423
86,dublin,PARKGATE STREET,Parkgate Street,0,0,38,38,0,OPEN,1709211743000,53.347972,-6.291804
35,dublin,SMITHFIELD,Smithfield,0,0,30,27,3,OPEN,1709212062000,53.347692,-6.278214
10,dublin,DAME STREET,Dame Street,1,0,16,8,7,OPEN,1709212014000,53.344007,-6.266802
100,dublin,HEUSTON BRIDGE (SOUTH),Heuston Bridge (South),0,0,25,23,2,OPEN,1709212140000,53.347106,-6.292041
24,dublin,CATHAL BRUGHA STREET,Cathal Brugha Street,0,0,20,20,0,OPEN,1709211864000,53.352149,-6.260533
64,dublin,SANDWITH STREET,Sandwith Street,0,0,40,16,24,OPEN,1709211940000,53.345203,-6.247163
109,dublin,BUCKINGHAM STREET LOWER,Buckingham Street Lower,0,0,29,6,23,OPEN,1709212054000,53.353331,-6.249319
85,dublin,ROTHE ABBEY,Rothe Abbey,0,0,35,18,17,OPEN,1709212048000,53.338776,-6.30395
107,dublin,CHARLEVILLE ROAD,Charleville Road,0,0,40,26,14,OPEN,1709211755000,53.359157,-6.281866
33,dublin,PRINCES STREET / O'CONNELL STREET,Princes Street / O'Connell Street,1,0,23,16,7,OPEN,1709212001000,53.349013,-6.260311
44,dublin,UPPER SHERRARD STREET,Upper Sherrard Street,0,0,30,30,0,OPEN,1709211876000,53.358437,-6.260641
89,dublin,FITZWILLIAM SQUARE EAST,Fitzwilliam Square East,0,0,40,28,12,OPEN,1709211883000,53.335211,-6.2509
57,dublin,GRATTAN STREET,Grattan Street,0,0,23,12,11,OPEN,1709211729000,53.339629,-6.243778
80,dublin,ST JAMES HOSPITAL (LUAS),St James Hospital (Luas),0,0,40,27,13,OPEN,1709211926000,53.341359,-6.292951
41,dublin,HARCOURT TERRACE,Harcourt Terrace,0,0,20,20,0,OPEN,1709211681000,53.332763,-6.257942
3,dublin,BOLTON STREET,Bolton Street,0,0,20,1,19,OPEN,1709212200000,53.351182,-6.269859
40,dublin,JERVIS STREET,Jervis Street,0,0,21,4,17,OPEN,1709212120000,53.3483,-6.266651
29,dublin,ORMOND QUAY UPPER,Ormond Quay Upper,0,0,29,23,6,OPEN,1709211913000,53.346057,-6.268001
103,dublin,GRANGEGORMAN LOWER (SOUTH),Grangegorman Lower (South),0,0,40,23,17,OPEN,1709211806000,53.354663,-6.278681
28,dublin,MOUNTJOY SQUARE WEST,Mountjoy Square West,0,0,30,21,9,OPEN,1709212127000,53.356299,-6.258586
39,dublin,WILTON TERRACE,Wilton Terrace,0,0,20,18,2,OPEN,1709212182000,53.332383,-6.252717
83,dublin,EMMET ROAD,Emmet Road,0,0,40,16,24,OPEN,1709212096000,53.340714,-6.308191
92,dublin,HEUSTON BRIDGE (NORTH),Heuston Bridge (North),0,0,40,40,0,OPEN,1709211969000,53.347802,-6.292432
21,dublin,LEINSTER STREET SOUTH,Leinster Street South,0,0,30,1,29,OPEN,1709211937000,53.34218,-6.254485
88,dublin,BLACKHALL PLACE,Blackhall Place,0,0,30,20,10,OPEN,1709212022000,53.3488,-6.281637
